PlantCode,PlantName,SourceTechnology,State,LoadZone,Latitude,Longitude,Pmax (MW),Pmin (MW),Zone,Bus_id,Type,Flag_thermal,Flag_RET,Flag_VRE,Flag_mustrun,Cost ($/MWh),EF,CC,AF,FOR,RM_SPIN,RU,RD,Flag_UC,Min_down_time,Min_up_time,Start_up_cost ($/MW),RM_REG_UP,RM_REG_DN,RM_NSPIN
566,Millstone,Nuclear,CT,CT,41.3107,-72.1677,915.683,0.0,ROP,19,NuC,1,0,0,0,12.0,0.0,0.95,0.95,0.06,0.1,0.12,0.12,1,24,24,4.0,0.05,0.05,0.075
566,Millstone,Nuclear,CT,CT,41.3107,-72.1677,477.209,0.0,ROP,99,NuC,1,0,0,0,12.0,0.0,0.95,0.95,0.06,0.1,0.12,0.12,1,24,24,4.0,0.05,0.05,0.075
566,Millstone,Nuclear,CT,CT,41.3107,-72.1677,393.168,0.0,ROP,230,NuC,1,0,0,0,12.0,0.0,0.95,0.95,0.06,0.1,0.12,0.12,1,24,24,4.0,0.05,0.05,0.075
566,Millstone,Nuclear,CT,CT,41.3107,-72.1677,318.14,0.0,ROP,115,NuC,1,0,0,0,12.0,0.0,0.95,0.95,0.06,0.1,0.12,0.12,1,24,24,4.0,0.05,0.05,0.075
1599,Canal,Petroleum Liquids,MA,SEMA,41.7694,-70.5097,575.019,0.0,SENE,219,Oil,1,0,0,0,92.0,0.82,0.88,1.0,0.1,0.08,1.0,1.0,1,1,1,10.0,0.04,0.04,0.06
1599,Canal,Petroleum Liquids,MA,SEMA,41.7694,-70.5097,296.938,0.0,SENE,84,Oil,1,0,0,0,92.0,0.82,0.88,1.0,0.1,0.08,1.0,1.0,1,1,1,10.0,0.04,0.04,0.06
1599,Canal,Petroleum Liquids,MA,SEMA,41.7694,-70.5097,288.422,0.0,SENE,26,Oil,1,0,0,0,92.0,0.82,0.88,1.0,0.1,0.08,1.0,1.0,1,1,1,10.0,0.04,0.04,0.06
1599,Canal,Petroleum Liquids,MA,SEMA,41.7694,-70.5097,288.422,0.0,SENE,167,Oil,1,0,0,0,92.0,0.82,0.88,1.0,0.1,0.08,1.0,1.0,1,1,1,10.0,0.04,0.04,0.06
6115,Seabrook,Nuclear,NH,NH,42.899167,-70.848889,1250.0,0.0,NNE,135,NuC,1,0,0,0,12.0,0.0,0.95,0.95,0.06,0.1,0.12,0.12,1,24,24,4.0,0.05,0.05,0.075
55149,Lake Road Generating Plant,Natural Gas Fired Combined Cycle,CT,CT,41.872043,-71.895799,828.8,0.0,ROP,97,NGCC,1,0,0,0,34.0,0.4,0.92,1.0,0.06,0.1,0.5,0.5,1,4,4,6.0,0.05,0.05,0.075
1507,William F Wyman Hybrid,Petroleum Liquids,ME,ME,43.7508,-70.1567,810.9,0.0,Maine,210,Oil,1,0,0,0,92.0,0.82,0.88,1.0,0.1,0.08,1.0,1.0,1,1,1,10.0,0.04,0.04,0.06
56047,CPV Towantic Energy Center,Natural Gas Fired Combined Cycle,CT,CT,41.481243,-73.123108,775.61,0.0,ROP,227,NGCC,1,0,0,0,34.0,0.4,0.92,1.0,0.06,0.1,0.5,0.5,1,4,4,6.0,0.05,0.05,0.075
55317,Fore River Generating Station,Natural Gas Fired Combined Cycle,MA,NEMA/Boston,42.2422,-70.9661,724.0,0.0,SENE,204,NGCC,1,0,0,0,34.0,0.4,0.92,1.0,0.06,0.1,0.5,0.5,1,4,4,6.0,0.05,0.05,0.075
60903,Salem Harbor Power Development LP,Natural Gas Fired Combined Cycle,MA,NEMA/Boston,42.525486,-70.878239,675.0,0.0,SENE,117,NGCC,1,0,0,0,34.0,0.4,0.92,1.0,0.06,0.1,0.5,0.5,1,4,4,6.0,0.05,0.05,0.075
55170,Granite Ridge,Natural Gas Fired Combined Cycle,NH,NH,42.9042,-71.4261,668.0,0.0,NNE,151,NGCC,1,0,0,0,34.0,0.4,0.92,1.0,0.06,0.1,0.5,0.5,1,4,4,6.0,0.05,0.05,0.075
56798,Kleen Energy Systems Project,Natural Gas Fired Combined Cycle,CT,CT,41.553227,-72.596867,622.0,0.0,ROP,19,NGCC,1,0,0,0,34.0,0.4,0.92,1.0,0.06,0.1,0.5,0.5,1,4,4,6.0,0.05,0.05,0.075
6156,New Haven Harbor,Petroleum Liquids,CT,CT,41.283997,-72.904323,562.2,0.0,ROP,224,Oil,1,0,0,0,92.0,0.82,0.88,1.0,0.1,0.08,1.0,1.0,1,1,1,10.0,0.04,0.04,0.06
55661,Newington Energy Center,Natural Gas Fired Combined Cycle,NH,NH,43.1047,-70.8061,560.5,0.0,NNE,21,NGCC,1,0,0,0,34.0,0.4,0.92,1.0,0.06,0.1,0.5,0.5,1,4,4,6.0,0.05,0.05,0.075
55107,Rhode Island State Energy Center,Natural Gas Fired Combined Cycle,RI,RI,41.8017,-71.5186,554.0,0.0,SENE,217,NGCC,1,0,0,0,34.0,0.4,0.92,1.0,0.06,0.1,0.5,0.5,1,4,4,6.0,0.05,0.05,0.075
55042,Bridgeport Energy Project,Natural Gas Fired Combined Cycle,CT,CT,41.1692,-73.1844,538.0,0.0,ROP,103,NGCC,1,0,0,0,34.0,0.4,0.92,1.0,0.06,0.1,0.5,0.5,1,4,4,6.0,0.05,0.05,0.075
55211,ANP Bellingham Energy Project,Natural Gas Fired Combined Cycle,MA,NEMA/Boston,42.110577,-71.453468,532.83,0.0,SENE,203,NGCC,1,0,0,0,34.0,0.4,0.92,1.0,0.06,0.1,0.5,0.5,1,4,4,6.0,0.05,0.05,0.075
55294,Westbrook Energy Center Power Plant,Natural Gas Fired Combined Cycle,ME,ME,43.6575,-70.375,526.77,0.0,Maine,210,NGCC,1,0,0,0,34.0,0.4,0.92,1.0,0.06,0.1,0.5,0.5,1,4,4,6.0,0.05,0.05,0.075
55126,Milford Power Project,Natural Gas Fired Combined Cycle,CT,CT,41.224355,-73.099728,510.15,0.0,ROP,103,NGCC,1,0,0,0,34.0,0.4,0.92,1.0,0.06,0.1,0.5,0.5,1,4,4,6.0,0.05,0.05,0.075
568,Bridgeport Station,Natural Gas Fired Combined Cycle,CT,CT,41.1706,-73.1844,496.62,0.0,ROP,118,NGCC,1,0,0,0,34.0,0.4,0.92,1.0,0.06,0.1,0.5,0.5,1,4,4,6.0,0.05,0.05,0.075
55068,Maine Independence Station,Natural Gas Fired Combined Cycle,ME,ME,44.8242,-68.7094,491.6,0.0,Maine,182,NGCC,1,0,0,0,34.0,0.4,0.92,1.0,0.06,0.1,0.5,0.5,1,4,4,6.0,0.05,0.05,0.075
55212,ANP Blackstone Energy Project,Natural Gas Fired Combined Cycle,MA,NEMA/Boston,42.059876,-71.515811,487.8,0.0,SENE,220,NGCC,1,0,0,0,34.0,0.4,0.92,1.0,0.06,0.1,0.5,0.5,1,4,4,6.0,0.05,0.05,0.075
3236,Manchester Street,Natural Gas Fired Combined Cycle,RI,RI,41.8167,-71.4042,471.0,0.0,SENE,218,NGCC,1,0,0,0,34.0,0.4,0.92,1.0,0.06,0.1,0.5,0.5,1,4,4,6.0,0.05,0.05,0.075
2364,Merrimack,Conventional Steam Coal,NH,NH,43.1411,-71.4692,438.5,0.0,NNE,25,Coal,1,0,0,0,48.0,0.95,0.9,0.92,0.08,0.08,0.25,0.25,1,8,8,9.0,0.04,0.04,0.06
6081,Stony Brook,Petroleum Liquids,MA,WCMA,42.1978,-72.5106,435.1,0.0,ROP,200,Oil,1,0,0,0,92.0,0.82,0.88,1.0,0.1,0.08,1.0,1.0,1,1,1,10.0,0.04,0.04,0.06
562,Middletown,Petroleum Liquids,CT,CT,41.554944,-72.579075,417.2,0.0,ROP,19,Oil,1,0,0,0,92.0,0.82,0.88,1.0,0.1,0.08,1.0,1.0,1,1,1,10.0,0.04,0.04,0.06
546,Montville Station,Petroleum Liquids,CT,CT,41.4281,-72.1019,410.0,0.0,ROP,136,Oil,1,0,0,0,92.0,0.82,0.88,1.0,0.1,0.08,1.0,1.0,1,1,1,10.0,0.04,0.04,0.06
8002,Newington,Natural Gas Steam Turbine,NH,NH,43.1,-70.790833,400.2,0.0,NNE,151,NGCT,1,0,0,0,58.0,0.59,0.86,1.0,0.08,0.12,1.0,1.0,1,1,1,8.0,0.06,0.06,0.09
562,Middletown,Natural Gas Steam Turbine,CT,CT,41.554944,-72.579075,353.0,0.0,ROP,19,NGCT,1,0,0,0,58.0,0.59,0.86,1.0,0.08,0.12,1.0,1.0,1,1,1,8.0,0.06,0.06,0.09
55079,Millennium Power,Natural Gas Fired Combined Cycle,MA,WCMA,42.112291,-72.015113,330.1,0.0,ROP,24,NGCC,1,0,0,0,34.0,0.4,0.92,1.0,0.06,0.1,0.5,0.5,1,4,4,6.0,0.05,0.05,0.075
55517,Wallingford Energy,Natural Gas Fired Combustion Turbine,CT,CT,41.448694,-72.835364,327.59,0.0,ROP,152,NGCT,1,0,0,0,58.0,0.59,0.86,1.0,0.08,0.12,1.0,1.0,1,1,1,8.0,0.06,0.06,0.09
55048,Tiverton Power Plant,Natural Gas Fired Combined Cycle,RI,RI,41.6422,-71.1706,273.0,0.0,SENE,38,NGCC,1,0,0,0,34.0,0.4,0.92,1.0,0.06,0.1,0.5,0.5,1,4,4,6.0,0.05,0.05,0.075
10307,Bellingham Cogeneration Facility,Natural Gas Fired Combined Cycle,MA,NEMA/Boston,42.0925,-71.4833,264.0,0.0,SENE,120,NGCC,1,0,0,0,34.0,0.4,0.92,1.0,0.06,0.1,0.5,0.5,1,4,4,6.0,0.05,0.05,0.075
55100,Rumford Power LLC,Natural Gas Fired Combined Cycle,ME,ME,44.5303,-70.5219,253.8,0.0,Maine,8,NGCC,1,0,0,0,34.0,0.4,0.92,1.0,0.06,0.1,0.5,0.5,1,4,4,6.0,0.05,0.05,0.075
10726,Masspower,Natural Gas Fired Combined Cycle,MA,WCMA,42.1575,-72.5225,245.0,0.0,ROP,200,NGCC,1,0,0,0,34.0,0.4,0.92,1.0,0.06,0.1,0.5,0.5,1,4,4,6.0,0.05,0.05,0.075
55041,Berkshire Power,Natural Gas Fired Combined Cycle,MA,WCMA,42.0476,-72.6478,229.3,0.0,ROP,200,NGCC,1,0,0,0,34.0,0.4,0.92,1.0,0.06,0.1,0.5,0.5,1,4,4,6.0,0.05,0.05,0.075
51030,Ocean State Power,Natural Gas Fired Combined Cycle,RI,RI,42.009722,-71.668909,218.6,0.0,SENE,163,NGCC,1,0,0,0,34.0,0.4,0.92,1.0,0.06,0.1,0.5,0.5,1,4,4,6.0,0.05,0.05,0.075
54324,Ocean State Power II,Natural Gas Fired Combined Cycle,RI,RI,42.0099,-71.6701,218.6,0.0,SENE,163,NGCC,1,0,0,0,34.0,0.4,0.92,1.0,0.06,0.1,0.5,0.5,1,4,4,6.0,0.05,0.05,0.075
1595,Kendall Square Station,Natural Gas Fired Combined Cycle,MA,NEMA/Boston,42.3633,-71.0792,206.0,0.0,SENE,165,NGCC,1,0,0,0,34.0,0.4,0.92,1.0,0.06,0.1,0.5,0.5,1,4,4,6.0,0.05,0.05,0.075
54805,Milford Power LP,Natural Gas Fired Combined Cycle,MA,NEMA/Boston,42.129361,-71.511496,204.8,0.0,SENE,120,NGCC,1,0,0,0,34.0,0.4,0.92,1.0,0.06,0.1,0.5,0.5,1,4,4,6.0,0.05,0.05,0.075
57070,GenConn Devon LLC,Petroleum Liquids,CT,CT,41.2108,-73.1075,196.0,0.0,ROP,147,Oil,1,0,0,0,92.0,0.82,0.88,1.0,0.1,0.08,1.0,1.0,1,1,1,10.0,0.04,0.04,0.06
2351,S C Moore,Conventional Hydroelectric,NH,NH,44.3356,-71.8742,188.8,0.0,NNE,238,Hydro,0,1,0,0,7.5,0.0,0.7,0.65,0.04,0.0,1.0,1.0,0,0,0,0.0,0.0,0.0,0.0
59882,Exelon West Medway II LLC,Natural Gas Fired Combustion Turbine,MA,NEMA/Boston,42.137218,-71.4447,187.9,0.0,SENE,203,NGCT,1,0,0,0,58.0,0.59,0.86,1.0,0.08,0.12,1.0,1.0,1,1,1,8.0,0.06,0.06,0.09
57068,GenConn Middletown LLC,Petroleum Liquids,CT,CT,41.554444,-72.576666,187.6,0.0,ROP,19,Oil,1,0,0,0,92.0,0.82,0.88,1.0,0.1,0.08,1.0,1.0,1,1,1,10.0,0.04,0.04,0.06
57531,Bingham Wind,Onshore Wind Turbine,ME,ME,45.103333,-69.761944,186.0,0.0,Maine,141,WindOn,0,1,1,0,3.0,0.0,0.18,1.0,0.05,0.0,1.0,1.0,0,1,1,0.0,0.0,0.0,0.0
50243,Bucksport Generation LLC,Natural Gas Fired Combustion Turbine,ME,ME,44.5738,-68.8046,178.0,0.0,Maine,190,NGCT,1,0,0,0,58.0,0.59,0.86,1.0,0.08,0.12,1.0,1.0,1,1,1,8.0,0.06,0.06,0.09
2349,Comerford,Conventional Hydroelectric,NH,NH,44.325053,-72.000975,165.9,0.0,NNE,132,Hydro,0,1,0,0,7.5,0.0,0.7,0.65,0.04,0.0,1.0,1.0,0,0,0,0.0,0.0,0.0,0.0
55026,Dighton Power Plant,Natural Gas Fired Combined Cycle,MA,SEMA,41.8312,-71.1239,165.6,0.0,SENE,81,NGCC,1,0,0,0,34.0,0.4,0.92,1.0,0.06,0.1,0.5,0.5,1,4,4,6.0,0.05,0.05,0.075
50002,Pittsfield Generating LP,Natural Gas Fired Combined Cycle,MA,WCMA,42.4564,-73.2181,157.7,0.0,ROP,98,NGCC,1,0,0,0,34.0,0.4,0.92,1.0,0.06,0.1,0.5,0.5,1,4,4,6.0,0.05,0.05,0.075
57002,Oakfield Wind Project,Onshore Wind Turbine,ME,ME,46.058056,-68.147222,148.0,0.0,Maine,189,WindOn,0,1,1,0,3.0,0.0,0.18,1.0,0.05,0.0,1.0,1.0,0,1,1,0.0,0.0,0.0,0.0
544,Devon Station,Petroleum Liquids,CT,CT,41.209797,-73.108976,132.4,0.0,ROP,107,Oil,1,0,0,0,92.0,0.82,0.88,1.0,0.1,0.08,1.0,1.0,1,1,1,10.0,0.04,0.04,0.06
56829,Kibby Wind Facility,Onshore Wind Turbine,ME,ME,45.3853,-70.5258,132.0,0.0,Maine,45,WindOn,0,1,1,0,3.0,0.0,0.18,1.0,0.05,0.0,1.0,1.0,0,1,1,0.0,0.0,0.0,0.0
55031,Androscoggin Energy Center,Natural Gas Fired Combustion Turbine,ME,ME,44.506315,-70.242312,130.2,0.0,Maine,186,NGCT,1,0,0,0,58.0,0.59,0.86,1.0,0.08,0.12,1.0,1.0,1,1,1,8.0,0.06,0.06,0.09
1592,Exelon Medway LLC,Petroleum Liquids,MA,NEMA/Boston,42.140028,-71.446441,123.1,0.0,SENE,28,Oil,1,0,0,0,92.0,0.82,0.88,1.0,0.1,0.08,1.0,1.0,1,1,1,10.0,0.04,0.04,0.06
66955,Three Corners Solar,Solar Photovoltaic,ME,ME,44.612621,-69.451817,110.0,0.0,Maine,174,SolarPV,0,1,1,0,2.0,0.0,0.26,1.0,0.03,0.0,1.0,1.0,0,1,1,0.0,0.0,0.0,0.0
1660,Potter Station 2,Natural Gas Fired Combustion Turbine,MA,NEMA/Boston,42.235,-70.9672,105.2,0.0,SENE,246,NGCT,1,0,0,0,58.0,0.59,0.86,1.0,0.08,0.12,1.0,1.0,1,1,1,8.0,0.06,0.06,0.09
1682,Cleary Flood Hybrid,Natural Gas Fired Combined Cycle,MA,SEMA,41.8653,-71.1061,103.0,0.0,SENE,82,NGCC,1,0,0,0,34.0,0.4,0.92,1.0,0.06,0.1,0.5,0.5,1,4,4,6.0,0.05,0.05,0.075
50406,Somerset Plant,Wood/Wood Waste Biomass,ME,ME,44.703467,-69.647441,99.8,0.0,Maine,174,Bio,1,1,0,0,39.0,0.1,0.9,0.9,0.08,0.06,0.4,0.4,1,6,6,6.0,0.03,0.03,0.045
58004,Granite Reliable Power,Onshore Wind Turbine,NH,NH,44.704444,-71.2925,99.0,0.0,NNE,76,WindOn,0,1,1,0,3.0,0.0,0.18,1.0,0.05,0.0,1.0,1.0,0,1,1,0.0,0.0,0.0,0.0
56629,Waterbury Generation,Natural Gas Fired Combustion Turbine,CT,CT,41.5444,-73.0417,96.0,0.0,ROP,119,NGCT,1,0,0,0,58.0,0.59,0.86,1.0,0.08,0.12,1.0,1.0,1,1,1,8.0,0.06,0.06,0.09
542,Cos Cob,Petroleum Liquids,CT,CT,41.0289,-73.5989,95.6,0.0,ROP,147,Oil,1,0,0,0,92.0,0.82,0.88,1.0,0.1,0.08,1.0,1.0,1,1,1,10.0,0.04,0.04,0.06
2367,Schiller,Conventional Steam Coal,NH,NH,43.0978,-70.7842,95.4,0.0,NNE,128,Coal,1,0,0,0,48.0,0.95,0.9,0.92,0.08,0.08,0.25,0.25,1,8,8,9.0,0.04,0.04,0.06
1511,Wyman Hydro,Conventional Hydroelectric,ME,ME,45.0703,-69.9064,88.5,0.0,Maine,212,Hydro,0,1,0,0,7.5,0.0,0.7,0.65,0.04,0.0,1.0,1.0,0,0,0,0.0,0.0,0.0,0.0
1492,Harris Hydro,Conventional Hydroelectric,ME,ME,45.4592,-69.8658,86.0,0.0,Maine,45,Hydro,0,1,0,0,7.5,0.0,0.7,0.65,0.04,0.0,1.0,1.0,0,0,0,0.0,0.0,0.0,0.0
10495,Rumford Cogeneration,Wood/Wood Waste Biomass,ME,ME,44.5513,-70.5414,85.0,0.0,Maine,8,Bio,1,1,0,0,39.0,0.1,0.9,0.9,0.08,0.06,0.4,0.4,1,6,6,6.0,0.03,0.03,0.045
546,Montville Station,Natural Gas Steam Turbine,CT,CT,41.4281,-72.1019,81.0,0.0,ROP,136,NGCT,1,0,0,0,58.0,0.59,0.86,1.0,0.08,0.12,1.0,1.0,1,1,1,8.0,0.06,0.06,0.09
50290,SEMASS Resource Recovery,Municipal Solid Waste,MA,SEMA,41.8022,-70.7875,80.0,0.0,SENE,167,MSW,1,1,0,0,32.0,0.08,0.9,0.92,0.08,0.06,0.35,0.35,1,6,6,5.0,0.03,0.03,0.045
64337,Farmington Solar,Solar Photovoltaic,ME,ME,44.654659,-70.100835,77.0,0.0,Maine,209,SolarPV,0,1,1,0,2.0,0.0,0.26,1.0,0.03,0.0,1.0,1.0,0,1,1,0.0,0.0,0.0,0.0
6635,A L Pierce,Natural Gas Fired Combustion Turbine,CT,CT,41.44823,-72.834884,74.1,0.0,ROP,152,NGCT,1,0,0,0,58.0,0.59,0.86,1.0,0.08,0.12,1.0,1.0,1,1,1,8.0,0.06,0.06,0.09
63132,Weaver Wind,Onshore Wind Turbine,ME,ME,44.722519,-68.163611,72.6,0.0,Maine,191,WindOn,0,1,1,0,3.0,0.0,0.18,1.0,0.05,0.0,1.0,1.0,0,1,1,0.0,0.0,0.0,0.0
54134,Great Lakes Hydro America - ME,Conventional Hydroelectric,ME,ME,45.647179,-68.704368,72.5,0.0,Maine,189,Hydro,0,1,0,0,7.5,0.0,0.7,0.65,0.04,0.0,1.0,1.0,0,0,0,0.0,0.0,0.0,0.0
56189,"Waterside Power, LLC",Petroleum Liquids,CT,CT,41.0372,-73.5564,69.9,0.0,ROP,147,Oil,1,0,0,0,92.0,0.82,0.88,1.0,0.1,0.08,1.0,1.0,1,1,1,10.0,0.04,0.04,0.06
58054,Burgess BioPower,Wood/Wood Waste Biomass,NH,NH,44.471944,-71.175278,67.5,0.0,NNE,76,Bio,1,1,0,0,39.0,0.1,0.9,0.9,0.08,0.06,0.4,0.4,1,6,6,6.0,0.03,0.03,0.045
57979,Kingdom Community Wind,Onshore Wind Turbine,VT,VT,44.748333,-72.425278,65.0,0.0,NNE,18,WindOn,0,1,1,0,3.0,0.0,0.18,1.0,0.05,0.0,1.0,1.0,0,1,1,0.0,0.0,0.0,0.0
10567,Algonquin Windsor Locks,Natural Gas Fired Combined Cycle,CT,CT,41.9227,-72.6255,64.0,0.0,ROP,196,NGCC,1,0,0,0,34.0,0.4,0.92,1.0,0.06,0.1,0.5,0.5,1,4,4,6.0,0.05,0.05,0.075
63559,MMWEC Simple Cycle Gas Turbine,Natural Gas Fired Combustion Turbine,MA,NEMA/Boston,42.54342,-70.927967,63.0,0.0,SENE,231,NGCT,1,0,0,0,58.0,0.59,0.86,1.0,0.08,0.12,1.0,1.0,1,1,1,8.0,0.06,0.06,0.09
52026,Dartmouth Power Associates LP,Natural Gas Fired Combined Cycle,MA,SEMA,41.6731,-70.9994,62.1,0.0,SENE,79,NGCC,1,0,0,0,34.0,0.4,0.92,1.0,0.06,0.1,0.5,0.5,1,4,4,6.0,0.05,0.05,0.075
1629,Cabot,Conventional Hydroelectric,MA,WCMA,42.5875,-72.5793,61.8,0.0,ROP,146,Hydro,0,1,0,0,7.5,0.0,0.7,0.65,0.04,0.0,1.0,1.0,0,0,0,0.0,0.0,0.0,0.0
56990,Rollins Wind Project,Onshore Wind Turbine,ME,ME,45.34598,-68.3802,60.0,0.0,Maine,189,WindOn,0,1,1,0,3.0,0.0,0.18,1.0,0.05,0.0,1.0,1.0,0,1,1,0.0,0.0,0.0,0.0
50883,Wheelabrator Bridgeport,Municipal Solid Waste,CT,CT,41.1625,-73.2083,58.0,0.0,ROP,107,MSW,1,1,0,0,32.0,0.08,0.9,0.92,0.08,0.06,0.35,0.35,1,6,6,5.0,0.03,0.03,0.045
56989,Stetson Wind I,Onshore Wind Turbine,ME,ME,45.4822,-67.9944,57.0,0.0,Maine,189,WindOn,0,1,1,0,3.0,0.0,0.18,1.0,0.05,0.0,1.0,1.0,0,1,1,0.0,0.0,0.0,0.0
50447,S D Warren Westbrook,Wood/Wood Waste Biomass,ME,ME,43.684857,-70.353152,56.3,0.0,Maine,145,Bio,1,1,0,0,39.0,0.1,0.9,0.9,0.08,0.06,0.4,0.4,1,6,6,6.0,0.03,0.03,0.045
589,J C McNeil,Wood/Wood Waste Biomass,VT,VT,44.4917,-73.208056,52.0,0.0,NNE,3,Bio,1,1,0,0,39.0,0.1,0.9,0.9,0.08,0.06,0.4,0.4,1,6,6,6.0,0.03,0.03,0.045
58686,Hancock Wind Plant,Onshore Wind Turbine,ME,ME,44.760833,-68.146944,51.0,0.0,Maine,188,WindOn,0,1,1,0,3.0,0.0,0.18,1.0,0.05,0.0,1.0,1.0,0,1,1,0.0,0.0,0.0,0.0
57568,Record Hill Wind,Onshore Wind Turbine,ME,ME,44.633611,-70.627777,50.6,0.0,Maine,209,WindOn,0,1,1,0,3.0,0.0,0.18,1.0,0.05,0.0,1.0,1.0,0,1,1,0.0,0.0,0.0,0.0
10176,M Street Jet,Petroleum Liquids,MA,NEMA/Boston,42.339387,-71.031407,50.0,0.0,SENE,156,Oil,1,0,0,0,92.0,0.82,0.88,1.0,0.1,0.08,1.0,1.0,1,1,1,10.0,0.04,0.04,0.06
63667,Sanford Solar,Solar Photovoltaic,ME,ME,43.4569,-70.7803,49.4,0.0,Maine,145,SolarPV,0,1,1,0,2.0,0.0,0.26,1.0,0.03,0.0,1.0,1.0,0,1,1,0.0,0.0,0.0,0.0
64387,Quinebaug Solar,Solar Photovoltaic,CT,CT,41.749867,-71.932481,49.4,0.0,ROP,97,SolarPV,0,1,1,0,2.0,0.0,0.26,1.0,0.03,0.0,1.0,1.0,0,1,1,0.0,0.0,0.0,0.0
58141,Groton Wind LLC,Onshore Wind Turbine,NH,NH,43.7681,-71.8189,48.0,0.0,NNE,131,WindOn,0,1,1,0,3.0,0.0,0.18,1.0,0.05,0.0,1.0,1.0,0,1,1,0.0,0.0,0.0,0.0
3745,Bellows Falls,Conventional Hydroelectric,VT,VT,43.1375,-72.4464,47.1,0.0,NNE,43,Hydro,0,1,0,0,7.5,0.0,0.7,0.65,0.04,0.0,1.0,1.0,0,0,0,0.0,0.0,0.0,0.0
50650,ReEnergy Stratton LLC,Wood/Wood Waste Biomass,ME,ME,45.140614,-70.425577,46.1,0.0,Maine,141,Bio,1,1,0,0,39.0,0.1,0.9,0.9,0.08,0.06,0.4,0.4,1,6,6,6.0,0.03,0.03,0.045
10613,"Woodland Pulp, LLC",Wood/Wood Waste Biomass,ME,ME,45.1554,-67.4012,46.0,0.0,Maine,185,Bio,1,1,0,0,39.0,0.1,0.9,0.9,0.08,0.06,0.4,0.4,1,6,6,6.0,0.03,0.03,0.045
1678,Waters River,Natural Gas Fired Combustion Turbine,MA,NEMA/Boston,42.542949,-70.928314,46.0,0.0,SENE,231,NGCT,1,0,0,0,58.0,0.59,0.86,1.0,0.08,0.12,1.0,1.0,1,1,1,8.0,0.06,0.06,0.09
10823,Deer Island Treatment Plant,Petroleum Liquids,MA,NEMA/Boston,42.353333,-70.962778,44.0,0.0,SENE,156,Oil,1,0,0,0,92.0,0.82,0.88,1.0,0.1,0.08,1.0,1.0,1,1,1,10.0,0.04,0.04,0.06
2367,Schiller,Wood/Wood Waste Biomass,NH,NH,43.0978,-70.7842,43.1,0.0,NNE,128,Bio,1,1,0,0,39.0,0.1,0.9,0.9,0.08,0.06,0.4,0.4,1,6,6,6.0,0.03,0.03,0.045
50661,Covanta Haverhill,Municipal Solid Waste,MA,NEMA/Boston,42.765,-71.1242,42.8,0.0,SENE,234,MSW,1,1,0,0,32.0,0.08,0.9,0.92,0.08,0.06,0.35,0.35,1,6,6,5.0,0.03,0.03,0.045
56448,Mars Hill Wind Farm Project,Onshore Wind Turbine,ME,ME,46.54422,-67.8111,42.0,0.0,Maine,189,WindOn,0,1,1,0,3.0,0.0,0.18,1.0,0.05,0.0,1.0,1.0,0,1,1,0.0,0.0,0.0,0.0
552,Shepaug,Conventional Hydroelectric,CT,CT,41.44842,-73.295321,41.5,0.0,ROP,112,Hydro,0,1,0,0,7.5,0.0,0.7,0.65,0.04,0.0,1.0,1.0,0,0,0,0.0,0.0,0.0,0.0
3746,Harriman,Conventional Hydroelectric,VT,VT,42.7936,-72.9144,40.8,0.0,NNE,43,Hydro,0,1,0,0,7.5,0.0,0.7,0.65,0.04,0.0,1.0,1.0,0,0,0,0.0,0.0,0.0,0.0
66855,Robin Hollow Solar,Solar Photovoltaic,RI,RI,41.640197,-71.629497,40.6,0.0,SENE,158,SolarPV,0,1,1,0,2.0,0.0,0.26,1.0,0.03,0.0,1.0,1.0,0,1,1,0.0,0.0,0.0,0.0
10493,Rumford Falls Hydro Facility,Conventional Hydroelectric,ME,ME,44.5486,-70.6283,40.2,0.0,Maine,8,Hydro,0,1,0,0,7.5,0.0,0.7,0.65,0.04,0.0,1.0,1.0,0,0,0,0.0,0.0,0.0,0.0
57080,Sheffield Wind,Onshore Wind Turbine,VT,VT,44.67598,-72.1013,40.0,0.0,NNE,18,WindOn,0,1,1,0,3.0,0.0,0.18,1.0,0.05,0.0,1.0,1.0,0,1,1,0.0,0.0,0.0,0.0
50878,Wheelabrator Millbury Facility,Municipal Solid Waste,MA,WCMA,42.2214,-71.7669,40.0,0.0,ROP,24,MSW,1,1,0,0,32.0,0.08,0.9,0.92,0.08,0.06,0.35,0.35,1,6,6,5.0,0.03,0.03,0.045
62771,Dry Bridge Solar (Brown University),Solar Photovoltaic,RI,RI,41.55742,-71.50726,40.0,0.0,SENE,86,SolarPV,0,1,1,0,2.0,0.0,0.26,1.0,0.03,0.0,1.0,1.0,0,1,1,0.0,0.0,0.0,0.0
59222,Passadumkeag Windpark LLC,Onshore Wind Turbine,ME,ME,45.07,-68.21,39.9,0.0,Maine,185,WindOn,0,1,1,0,3.0,0.0,0.18,1.0,0.05,0.0,1.0,1.0,0,1,1,0.0,0.0,0.0,0.0
10883,Medical Area Total Energy Plant,Natural Gas Fired Combustion Turbine,MA,NEMA/Boston,42.33685,-71.10815,38.5,0.0,SENE,121,NGCT,1,0,0,0,58.0,0.59,0.86,1.0,0.08,0.12,1.0,1.0,1,1,1,8.0,0.06,0.06,0.09
10354,ReEnergy Livermore Falls,Wood/Wood Waste Biomass,ME,ME,44.431667,-70.1619,38.0,0.0,Maine,186,Bio,1,1,0,0,39.0,0.1,0.9,0.9,0.08,0.06,0.4,0.4,1,6,6,6.0,0.03,0.03,0.045
63203,VPPSA Project 10,Petroleum Liquids,VT,VT,44.916666,-73.1,38.0,0.0,NNE,3,Oil,1,0,0,0,92.0,0.82,0.88,1.0,0.1,0.08,1.0,1.0,1,1,1,10.0,0.04,0.04,0.06
56847,Plainfield Renewable Energy LLC,Wood/Wood Waste Biomass,CT,CT,41.664376,-71.92418,37.5,0.0,ROP,105,Bio,1,1,0,0,39.0,0.1,0.9,0.9,0.08,0.06,0.4,0.4,1,6,6,6.0,0.03,0.03,0.045
62657,DWW Solar ll,Solar Photovoltaic,CT,CT,41.541596,-72.475018,36.9,0.0,ROP,19,SolarPV,0,1,1,0,2.0,0.0,0.26,1.0,0.03,0.0,1.0,1.0,0,1,1,0.0,0.0,0.0,0.0
2353,Wilder,Conventional Hydroelectric,VT,VT,43.667927,-72.303642,36.2,0.0,NNE,1,Hydro,0,1,0,0,7.5,0.0,0.7,0.65,0.04,0.0,1.0,1.0,0,0,0,0.0,0.0,0.0,0.0
54907,Mass Inst Tech Cntrl Utilities/Cogen Plt,Natural Gas Fired Combustion Turbine,MA,NEMA/Boston,42.360986,-71.093876,35.4,0.0,SENE,165,NGCT,1,0,0,0,58.0,0.59,0.86,1.0,0.08,0.12,1.0,1.0,1,1,1,8.0,0.06,0.06,0.09
3734,Berlin 5,Petroleum Liquids,VT,VT,44.251,-72.6027,35.0,0.0,NNE,181,Oil,1,0,0,0,92.0,0.82,0.88,1.0,0.1,0.08,1.0,1.0,1,1,1,10.0,0.04,0.04,0.06
57083,Bull Hill Wind Project,Onshore Wind Turbine,ME,ME,44.723056,-68.2425,34.5,0.0,Maine,191,WindOn,0,1,1,0,3.0,0.0,0.18,1.0,0.05,0.0,1.0,1.0,0,1,1,0.0,0.0,0.0,0.0
58608,Saddleback Ridge Wind Farm,Onshore Wind Turbine,ME,ME,44.593333,-70.381111,34.2,0.0,Maine,209,WindOn,0,1,1,0,3.0,0.0,0.18,1.0,0.05,0.0,1.0,1.0,0,1,1,0.0,0.0,0.0,0.0
2364,Merrimack,Petroleum Liquids,NH,NH,43.1411,-71.4692,33.6,0.0,NNE,25,Oil,1,0,0,0,92.0,0.82,0.88,1.0,0.1,0.08,1.0,1.0,1,1,1,10.0,0.04,0.04,0.06
1605,Hadley Falls,Conventional Hydroelectric,MA,WCMA,42.2119,-72.6036,33.1,0.0,ROP,249,Hydro,0,1,0,0,7.5,0.0,0.7,0.65,0.04,0.0,1.0,1.0,0,0,0,0.0,0.0,0.0,0.0
50880,Wheelabrator Saugus,Municipal Solid Waste,MA,NEMA/Boston,42.447,-70.9804,32.8,0.0,SENE,244,MSW,1,1,0,0,32.0,0.08,0.9,0.92,0.08,0.06,0.35,0.35,1,6,6,5.0,0.03,0.03,0.045
1630,Cobble Mountain,Conventional Hydroelectric,MA,WCMA,42.117112,-72.864663,32.6,0.0,ROP,249,Hydro,0,1,0,0,7.5,0.0,0.7,0.65,0.04,0.0,1.0,1.0,0,0,0,0.0,0.0,0.0,0.0
1484,Cape Gas Turbine,Petroleum Liquids,ME,ME,43.6436,-70.2544,32.0,0.0,Maine,145,Oil,1,0,0,0,92.0,0.82,0.88,1.0,0.1,0.08,1.0,1.0,1,1,1,10.0,0.04,0.04,0.06
59254,Johnston LFG Turbine Plant,Landfill Gas,RI,RI,41.803333,-71.523333,30.9,0.0,SENE,154,Bio,1,1,0,0,39.0,0.1,0.9,0.9,0.08,0.06,0.4,0.4,1,6,6,6.0,0.03,0.03,0.045
1586,Exelon Framingham LLC,Petroleum Liquids,MA,NEMA/Boston,42.2672,-71.3983,30.3,0.0,SENE,120,Oil,1,0,0,0,92.0,0.82,0.88,1.0,0.1,0.08,1.0,1.0,1,1,1,10.0,0.04,0.04,0.06
61039,Deerfield Wind LLC,Onshore Wind Turbine,VT,VT,42.877215,-72.993721,30.0,0.0,NNE,43,WindOn,0,1,1,0,3.0,0.0,0.18,1.0,0.05,0.0,1.0,1.0,0,1,1,0.0,0.0,0.0,0.0
10883,Medical Area Total Energy Plant,Petroleum Liquids,MA,NEMA/Boston,42.33685,-71.10815,30.0,0.0,SENE,121,Oil,1,0,0,0,92.0,0.82,0.88,1.0,0.1,0.08,1.0,1.0,1,1,1,10.0,0.04,0.04,0.06
50877,Wheelabrator North Andover,Municipal Solid Waste,MA,NEMA/Boston,42.7262,-71.1219,30.0,0.0,SENE,234,MSW,1,1,0,0,32.0,0.08,0.9,0.92,0.08,0.06,0.35,0.35,1,6,6,5.0,0.03,0.03,0.045
58035,Block Island Wind Farm,Offshore Wind Turbine,RI,RI,41.114722,-71.521111,29.3,0.0,SENE,86,WindOn,0,1,1,0,3.0,0.0,0.18,1.0,0.05,0.0,1.0,1.0,0,1,1,0.0,0.0,0.0,0.0
553,Stevenson,Conventional Hydroelectric,CT,CT,41.3833,-73.1714,28.9,0.0,ROP,147,Hydro,0,1,0,0,7.5,0.0,0.7,0.65,0.04,0.0,1.0,1.0,0,0,0,0.0,0.0,0.0,0.0
59953,Antrim Wind,Onshore Wind Turbine,NH,NH,43.06435,-72.00635,28.8,0.0,NNE,127,WindOn,0,1,1,0,3.0,0.0,0.18,1.0,0.05,0.0,1.0,1.0,0,1,1,0.0,0.0,0.0,0.0
57380,New England Wind LLC,Onshore Wind Turbine,MA,WCMA,42.7297,-73.0236,28.5,0.0,ROP,146,WindOn,0,1,1,0,3.0,0.0,0.18,1.0,0.05,0.0,1.0,1.0,0,1,1,0.0,0.0,0.0,0.0
805,Charles E Monty,Conventional Hydroelectric,ME,ME,44.099461,-70.220851,28.0,0.0,Maine,207,Hydro,0,1,0,0,7.5,0.0,0.7,0.65,0.04,0.0,1.0,1.0,0,0,0,0.0,0.0,0.0,0.0
54605,Pratt & Whitney,Natural Gas Fired Combustion Turbine,CT,CT,41.748327,-72.636693,28.0,0.0,ROP,23,NGCT,1,0,0,0,58.0,0.59,0.86,1.0,0.08,0.12,1.0,1.0,1,1,1,8.0,0.06,0.06,0.09
56991,Stetson Wind II,Onshore Wind Turbine,ME,ME,45.61498,-67.971,25.5,0.0,Maine,189,WindOn,0,1,1,0,3.0,0.0,0.18,1.0,0.05,0.0,1.0,1.0,0,1,1,0.0,0.0,0.0,0.0
56399,Lempster Wind LLC,Onshore Wind Turbine,NH,NH,43.233,-72.1455,24.0,0.0,NNE,124,WindOn,0,1,1,0,3.0,0.0,0.18,1.0,0.05,0.0,1.0,1.0,0,1,1,0.0,0.0,0.0,0.0
63668,"University Solar, LLC",Solar Photovoltaic,RI,RI,41.6133,-71.6593,24.0,0.0,SENE,158,SolarPV,0,1,1,0,2.0,0.0,0.26,1.0,0.03,0.0,1.0,1.0,0,1,1,0.0,0.0,0.0,0.0
1491,Gulf Island,Conventional Hydroelectric,ME,ME,44.152854,-70.209378,23.2,0.0,Maine,187,Hydro,0,1,0,0,7.5,0.0,0.7,0.65,0.04,0.0,1.0,1.0,0,0,0,0.0,0.0,0.0,0.0
58620,Canton Mountain Wind,Onshore Wind Turbine,ME,ME,44.514722,-70.303056,22.8,0.0,Maine,186,WindOn,0,1,1,0,3.0,0.0,0.18,1.0,0.05,0.0,1.0,1.0,0,1,1,0.0,0.0,0.0,0.0
54236,Pfizer Groton Plant,Natural Gas Steam Turbine,CT,CT,41.3315,-72.0786,22.5,0.0,ROP,92,NGCT,1,0,0,0,58.0,0.59,0.86,1.0,0.08,0.12,1.0,1.0,1,1,1,8.0,0.06,0.06,0.09
10883,Medical Area Total Energy Plant,Natural Gas Steam Turbine,MA,NEMA/Boston,42.33685,-71.10815,22.0,0.0,SENE,121,NGCT,1,0,0,0,58.0,0.59,0.86,1.0,0.08,0.12,1.0,1.0,1,1,1,8.0,0.06,0.06,0.09
10556,Boott Hydropower,Conventional Hydroelectric,MA,NEMA/Boston,42.652454,-71.322383,21.7,0.0,SENE,234,Hydro,0,1,0,0,7.5,0.0,0.7,0.65,0.04,0.0,1.0,1.0,0,0,0,0.0,0.0,0.0,0.0
1505,Skelton,Conventional Hydroelectric,ME,ME,43.5708,-70.5583,21.6,0.0,Maine,145,Hydro,0,1,0,0,7.5,0.0,0.7,0.65,0.04,0.0,1.0,1.0,0,0,0,0.0,0.0,0.0,0.0
10700,Red Shield Envir Old Town Facility,Wood/Wood Waste Biomass,ME,ME,44.918063,-68.63554,21.5,0.0,Maine,58,Bio,1,1,0,0,39.0,0.1,0.9,0.9,0.08,0.06,0.4,0.4,1,6,6,6.0,0.03,0.03,0.045
50051,Eagle Point Energy Center,Municipal Solid Waste,ME,ME,44.7383,-68.8258,21.2,0.0,Maine,182,MSW,1,1,0,0,32.0,0.08,0.9,0.92,0.08,0.06,0.35,0.35,1,6,6,5.0,0.03,0.03,0.045
10766,Indeck West Enfield Energy Center,Wood/Wood Waste Biomass,ME,ME,45.2537,-68.62792,20.4,0.0,Maine,185,Bio,1,1,0,0,39.0,0.1,0.9,0.9,0.08,0.06,0.4,0.4,1,6,6,6.0,0.03,0.03,0.045
10765,Indeck Jonesboro Energy Center,Wood/Wood Waste Biomass,ME,ME,44.6781,-67.5477,20.2,0.0,Maine,188,Bio,1,1,0,0,39.0,0.1,0.9,0.9,0.08,0.06,0.4,0.4,1,6,6,6.0,0.03,0.03,0.045
58026,Spruce Mountain WInd,Onshore Wind Turbine,ME,ME,44.415587,-70.559814,20.0,0.0,Maine,8,WindOn,0,1,1,0,3.0,0.0,0.18,1.0,0.05,0.0,1.0,1.0,0,1,1,0.0,0.0,0.0,0.0
63894,Milo PV - BD Solar 1 LLC,Solar Photovoltaic,ME,ME,45.267,-68.991,20.0,0.0,Maine,10,SolarPV,0,1,1,0,2.0,0.0,0.26,1.0,0.03,0.0,1.0,1.0,0,1,1,0.0,0.0,0.0,0.0
66283,Silver Maple,Onshore Wind Turbine,ME,ME,44.7821,-68.5201,20.0,0.0,Maine,188,WindOn,0,1,1,0,3.0,0.0,0.18,1.0,0.05,0.0,1.0,1.0,0,1,1,0.0,0.0,0.0,0.0
50739,"NE Renewable Tamworth, LLC",Wood/Wood Waste Biomass,NH,NH,43.835833,-71.1967,20.0,0.0,NNE,235,Bio,1,1,0,0,39.0,0.1,0.9,0.9,0.08,0.06,0.4,0.4,1,6,6,6.0,0.03,0.03,0.045
51026,"Ryegate Associates, LLC",Wood/Wood Waste Biomass,VT,VT,44.2131,-72.0572,20.0,0.0,NNE,139,Bio,1,1,0,0,39.0,0.1,0.9,0.9,0.08,0.06,0.4,0.4,1,6,6,6.0,0.03,0.03,0.045
58876,Fusion Solar Center LLC,Solar Photovoltaic,CT,CT,41.623889,-72.043056,20.0,0.0,ROP,105,SolarPV,0,1,1,0,2.0,0.0,0.26,1.0,0.03,0.0,1.0,1.0,0,1,1,0.0,0.0,0.0,0.0
61736,Woods Hill Solar,Solar Photovoltaic,CT,CT,41.83184,-71.919867,20.0,0.0,ROP,97,SolarPV,0,1,1,0,2.0,0.0,0.26,1.0,0.03,0.0,1.0,1.0,0,1,1,0.0,0.0,0.0,0.0
67116,"GD West Greenwich Nooseneck I, LLC",Solar Photovoltaic,RI,RI,41.606,-71.647,20.0,0.0,SENE,158,SolarPV,0,1,1,0,2.0,0.0,0.26,1.0,0.03,0.0,1.0,1.0,0,1,1,0.0,0.0,0.0,0.0
3754,Burlington GT,Petroleum Liquids,VT,VT,44.4814,-73.2239,19.7,0.0,NNE,3,Oil,1,0,0,0,92.0,0.82,0.88,1.0,0.1,0.08,1.0,1.0,1,1,1,10.0,0.04,0.04,0.06
61959,"Coolidge Solar 1, LLC",Solar Photovoltaic,VT,VT,43.424817,-72.665336,19.6,0.0,NNE,43,SolarPV,0,1,1,0,2.0,0.0,0.26,1.0,0.03,0.0,1.0,1.0,0,1,1,0.0,0.0,0.0,0.0
63592,Nutmeg Solar,Solar Photovoltaic,CT,CT,41.974794,-72.510833,19.6,0.0,ROP,199,SolarPV,0,1,1,0,2.0,0.0,0.26,1.0,0.03,0.0,1.0,1.0,0,1,1,0.0,0.0,0.0,0.0
52026,Dartmouth Power Associates LP,Natural Gas Fired Combustion Turbine,MA,SEMA,41.6731,-70.9994,19.6,0.0,SENE,79,NGCT,1,0,0,0,58.0,0.59,0.86,1.0,0.08,0.12,1.0,1.0,1,1,1,8.0,0.06,0.06,0.09
10494,Sheldon Springs Hydroelectric,Conventional Hydroelectric,VT,VT,44.9108,-72.9736,19.4,0.0,NNE,3,Hydro,0,1,0,0,7.5,0.0,0.7,0.65,0.04,0.0,1.0,1.0,0,0,0,0.0,0.0,0.0,0.0
58159,UCONN Cogen Facility,Natural Gas Fired Combined Cycle,CT,CT,41.809167,-72.254167,19.2,0.0,ROP,97,NGCC,1,0,0,0,34.0,0.4,0.92,1.0,0.06,0.1,0.5,0.5,1,4,4,6.0,0.05,0.05,0.075
1595,Kendall Square Station,Petroleum Liquids,MA,NEMA/Boston,42.3633,-71.0792,18.0,0.0,SENE,165,Oil,1,0,0,0,92.0,0.82,0.88,1.0,0.1,0.08,1.0,1.0,1,1,1,10.0,0.04,0.04,0.06
2369,White Lake,Petroleum Liquids,NH,NH,43.8478,-71.2069,17.5,0.0,NNE,235,Oil,1,0,0,0,92.0,0.82,0.88,1.0,0.1,0.08,1.0,1.0,1,1,1,10.0,0.04,0.04,0.06
540,Branford,Petroleum Liquids,CT,CT,41.2925,-72.7942,17.4,0.0,ROP,33,Oil,1,0,0,0,92.0,0.82,0.88,1.0,0.1,0.08,1.0,1.0,1,1,1,10.0,0.04,0.04,0.06
565,Torrington Terminal,Petroleum Liquids,CT,CT,41.776109,-73.120886,17.4,0.0,ROP,226,Oil,1,0,0,0,92.0,0.82,0.88,1.0,0.1,0.08,1.0,1.0,1,1,1,10.0,0.04,0.04,0.06
2367,Schiller,Petroleum Liquids,NH,NH,43.0978,-70.7842,17.0,0.0,NNE,128,Oil,1,0,0,0,92.0,0.82,0.88,1.0,0.1,0.08,1.0,1.0,1,1,1,10.0,0.04,0.04,0.06
10839,"NE Renewable Whitefield, LLC",Wood/Wood Waste Biomass,NH,NH,44.358047,-71.5449,17.0,0.0,NNE,238,Bio,1,1,0,0,39.0,0.1,0.9,0.9,0.08,0.06,0.4,0.4,1,6,6,6.0,0.03,0.03,0.045
2354,Amoskeag,Conventional Hydroelectric,NH,NH,43.00223,-71.47208,16.8,0.0,NNE,151,Hydro,0,1,0,0,7.5,0.0,0.7,0.65,0.04,0.0,1.0,1.0,0,0,0,0.0,0.0,0.0,0.0
557,Tunnel,Petroleum Liquids,CT,CT,41.555425,-72.041829,16.5,0.0,ROP,105,Oil,1,0,0,0,92.0,0.82,0.88,1.0,0.1,0.08,1.0,1.0,1,1,1,10.0,0.04,0.04,0.06
58184,Rand Whitney CHP Plant,Natural Gas Fired Combustion Turbine,CT,CT,41.452778,-72.136111,16.5,0.0,ROP,105,NGCT,1,0,0,0,58.0,0.59,0.86,1.0,0.08,0.12,1.0,1.0,1,1,1,8.0,0.06,0.06,0.09
10646,Covanta Southeastern Connecticut Company,Municipal Solid Waste,CT,CT,41.475,-72.0688,16.3,0.0,ROP,105,MSW,1,1,0,0,32.0,0.08,0.9,0.92,0.08,0.06,0.35,0.35,1,6,6,5.0,0.03,0.03,0.045
64108,Gold Meadow Farms,Solar Photovoltaic,RI,RI,41.734903,-71.528175,16.2,0.0,SENE,157,SolarPV,0,1,1,0,2.0,0.0,0.26,1.0,0.03,0.0,1.0,1.0,0,1,1,0.0,0.0,0.0,0.0
10838,"NE Renewable Springfield, LLC",Wood/Wood Waste Biomass,NH,NH,43.442871,-72.056,16.1,0.0,NNE,124,Bio,1,1,0,0,39.0,0.1,0.9,0.9,0.08,0.06,0.4,0.4,1,6,6,6.0,0.03,0.03,0.045
561,Franklin Drive,Petroleum Liquids,CT,CT,41.798943,-73.116267,16.1,0.0,ROP,226,Oil,1,0,0,0,92.0,0.82,0.88,1.0,0.1,0.08,1.0,1.0,1,1,1,10.0,0.04,0.04,0.06
64559,Wallingford Solar,Solar Photovoltaic,CT,CT,41.44175,-72.83737,16.1,0.0,ROP,152,SolarPV,0,1,1,0,2.0,0.0,0.26,1.0,0.03,0.0,1.0,1.0,0,1,1,0.0,0.0,0.0,0.0
10290,Bridgewater Power LP,Wood/Wood Waste Biomass,NH,NH,43.7155,-71.6585,16.0,0.0,NNE,131,Bio,1,1,0,0,39.0,0.1,0.9,0.9,0.08,0.06,0.4,0.4,1,6,6,6.0,0.03,0.03,0.045
54148,Hydro Kennebec Project,Conventional Hydroelectric,ME,ME,44.563031,-69.619162,15.4,0.0,Maine,174,Hydro,0,1,0,0,7.5,0.0,0.7,0.65,0.04,0.0,1.0,1.0,0,0,0,0.0,0.0,0.0,0.0
62857,RoxWind,Onshore Wind Turbine,ME,ME,44.6148,-70.6176,15.3,0.0,Maine,209,WindOn,0,1,1,0,3.0,0.0,0.18,1.0,0.05,0.0,1.0,1.0,0,1,1,0.0,0.0,0.0,0.0
50208,"NE Renewable Bethlehem, LLC",Wood/Wood Waste Biomass,NH,NH,44.3274,-71.68,15.0,0.0,NNE,238,Bio,1,1,0,0,39.0,0.1,0.9,0.9,0.08,0.06,0.4,0.4,1,6,6,6.0,0.03,0.03,0.045
62318,"North Stonington Solar Center, LLC",Solar Photovoltaic,CT,CT,41.418331,-71.836729,15.0,0.0,ROP,136,SolarPV,0,1,1,0,2.0,0.0,0.26,1.0,0.03,0.0,1.0,1.0,0,1,1,0.0,0.0,0.0,0.0
57721,Berkshire Wind Power Project,Onshore Wind Turbine,MA,WCMA,42.586667,-73.275,15.0,0.0,ROP,98,WindOn,0,1,1,0,3.0,0.0,0.18,1.0,0.05,0.0,1.0,1.0,0,1,1,0.0,0.0,0.0,0.0
54620,"NE Renewable Fitchburg, LLC",Wood/Wood Waste Biomass,MA,WCMA,42.5428,-71.8528,14.9,0.0,ROP,176,Bio,1,1,0,0,39.0,0.1,0.9,0.9,0.08,0.06,0.4,0.4,1,6,6,6.0,0.03,0.03,0.045
1510,Williams Hydro,Conventional Hydroelectric,ME,ME,44.9589,-69.8703,14.9,0.0,Maine,141,Hydro,0,1,0,0,7.5,0.0,0.7,0.65,0.04,0.0,1.0,1.0,0,0,0,0.0,0.0,0.0,0.0
60391,SJA Solar LLC-Solterra Monastery CSG,Solar Photovoltaic,MA,WCMA,42.283439,-72.008468,14.7,0.0,ROP,250,SolarPV,0,1,1,0,2.0,0.0,0.26,1.0,0.03,0.0,1.0,1.0,0,1,1,0.0,0.0,0.0,0.0
58084,"Kimberly Clark-Unit 1,2,3",Natural Gas Fired Combined Cycle,CT,CT,41.558333,-73.413611,14.5,0.0,ROP,112,NGCC,1,0,0,0,34.0,0.4,0.92,1.0,0.06,0.1,0.5,0.5,1,4,4,6.0,0.05,0.05,0.075
58084,"Kimberly Clark-Unit 1,2,3",Natural Gas Fired Combustion Turbine,CT,CT,41.558333,-73.413611,14.5,0.0,ROP,112,NGCT,1,0,0,0,58.0,0.59,0.86,1.0,0.08,0.12,1.0,1.0,1,1,1,8.0,0.06,0.06,0.09
2362,Lost Nation,Petroleum Liquids,NH,NH,44.595117,-71.494398,14.0,0.0,NNE,76,Oil,1,0,0,0,92.0,0.82,0.88,1.0,0.1,0.08,1.0,1.0,1,1,1,10.0,0.04,0.04,0.06
50545,Lawrence Hydroelectric Associates,Conventional Hydroelectric,MA,NEMA/Boston,42.6994,-71.1653,14.0,0.0,SENE,234,Hydro,0,1,0,0,7.5,0.0,0.7,0.65,0.04,0.0,1.0,1.0,0,0,0,0.0,0.0,0.0,0.0
1620,Deerfield 5,Conventional Hydroelectric,MA,WCMA,42.69118,-72.9561,13.9,0.0,ROP,146,Hydro,0,1,0,0,7.5,0.0,0.7,0.65,0.04,0.0,1.0,1.0,0,0,0,0.0,0.0,0.0,0.0
64723,Alton Road Solar,Solar Photovoltaic,RI,RI,41.407547,-71.748328,13.9,0.0,SENE,86,SolarPV,0,1,1,0,2.0,0.0,0.26,1.0,0.03,0.0,1.0,1.0,0,1,1,0.0,0.0,0.0,0.0
58551,"Bridgeport Fuel Cell, LLC",Other Natural Gas,CT,CT,41.168056,-73.211111,13.7,0.0,ROP,107,NGCT,1,0,0,0,58.0,0.59,0.86,1.0,0.08,0.12,1.0,1.0,1,1,1,8.0,0.06,0.06,0.09
1615,Nantucket Hybrid,Petroleum Liquids,MA,SEMA,41.2583,-70.0517,13.5,0.0,SENE,42,Oil,1,0,0,0,92.0,0.82,0.88,1.0,0.1,0.08,1.0,1.0,1,1,1,10.0,0.04,0.04,0.06
50648,Covanta Bristol Energy,Municipal Solid Waste,CT,CT,41.6492,-72.9153,13.2,0.0,ROP,233,MSW,1,1,0,0,32.0,0.08,0.9,0.92,0.08,0.06,0.35,0.35,1,6,6,5.0,0.03,0.03,0.045
1483,Brunswick Hydro,Conventional Hydroelectric,ME,ME,43.920486,-69.967819,13.0,0.0,Maine,100,Hydro,0,1,0,0,7.5,0.0,0.7,0.65,0.04,0.0,1.0,1.0,0,0,0,0.0,0.0,0.0,0.0
54758,Wheelabrator Lisbon,Municipal Solid Waste,CT,CT,41.584429,-72.041629,13.0,0.0,ROP,105,MSW,1,1,0,0,32.0,0.08,0.9,0.92,0.08,0.06,0.35,0.35,1,6,6,5.0,0.03,0.03,0.045
64603,"TPE King Solar Holdings1, LLC (CSG)",Solar Photovoltaic,RI,RI,41.979212,-71.581309,12.7,0.0,SENE,163,SolarPV,0,1,1,0,2.0,0.0,0.26,1.0,0.03,0.0,1.0,1.0,0,1,1,0.0,0.0,0.0,0.0
61857,Toray Plastic America's CHP Plant,Natural Gas Internal Combustion Engine,RI,RI,41.593802,-71.427609,12.5,0.0,SENE,86,NGCT,1,0,0,0,58.0,0.59,0.86,1.0,0.08,0.12,1.0,1.0,1,1,1,8.0,0.06,0.06,0.09
59070,Jericho Power,Onshore Wind Turbine,NH,NH,44.466944,-71.225,12.1,0.0,NNE,76,WindOn,0,1,1,0,3.0,0.0,0.18,1.0,0.05,0.0,1.0,1.0,0,1,1,0.0,0.0,0.0,0.0
50873,Wheelabrator Concord Facility,Municipal Solid Waste,NH,NH,43.2866,-71.5769,12.0,0.0,NNE,25,MSW,1,1,0,0,32.0,0.08,0.9,0.92,0.08,0.06,0.35,0.35,1,6,6,5.0,0.03,0.03,0.045
57666,Foxwoods CoGen,Natural Gas Fired Combined Cycle,CT,CT,41.4731,-71.9606,12.0,0.0,ROP,136,NGCC,1,0,0,0,34.0,0.4,0.92,1.0,0.06,0.1,0.5,0.5,1,4,4,6.0,0.05,0.05,0.075
64160,SR North Stonington,Solar Photovoltaic,CT,CT,41.434277,-71.814044,12.0,0.0,ROP,136,SolarPV,0,1,1,0,2.0,0.0,0.26,1.0,0.03,0.0,1.0,1.0,0,1,1,0.0,0.0,0.0,0.0
61342,Barrett PV,Solar Photovoltaic,MA,WCMA,42.162207,-71.864455,11.9,0.0,ROP,24,SolarPV,0,1,1,0,2.0,0.0,0.26,1.0,0.03,0.0,1.0,1.0,0,1,1,0.0,0.0,0.0,0.0
50758,Pejepscot Hydroelectric Project,Conventional Hydroelectric,ME,ME,43.957448,-70.024158,11.7,0.0,Maine,187,Hydro,0,1,0,0,7.5,0.0,0.7,0.65,0.04,0.0,1.0,1.0,0,0,0,0.0,0.0,0.0,0.0
2368,Smith (NH),Conventional Hydroelectric,NH,NH,44.469463,-71.178062,11.7,0.0,NNE,76,Hydro,0,1,0,0,7.5,0.0,0.7,0.65,0.04,0.0,1.0,1.0,0,0,0,0.0,0.0,0.0,0.0
50225,Regional Waste Systems,Municipal Solid Waste,ME,ME,43.6556,-70.3347,11.5,0.0,Maine,145,MSW,1,1,0,0,32.0,0.08,0.9,0.92,0.08,0.06,0.35,0.35,1,6,6,5.0,0.03,0.03,0.045
8004,Fife Brook,Conventional Hydroelectric,MA,WCMA,42.685681,-72.977634,11.2,0.0,ROP,146,Hydro,0,1,0,0,7.5,0.0,0.7,0.65,0.04,0.0,1.0,1.0,0,0,0,0.0,0.0,0.0,0.0
61703,Sikorsky Aircraft CHP,Natural Gas Fired Combustion Turbine,CT,CT,41.250009,-73.09865,10.3,0.0,ROP,107,NGCT,1,0,0,0,58.0,0.59,0.86,1.0,0.08,0.12,1.0,1.0,1,1,1,8.0,0.06,0.06,0.09
50080,Otis Hydro,Conventional Hydroelectric,ME,ME,44.477807,-70.200759,10.2,0.0,Maine,186,Hydro,0,1,0,0,7.5,0.0,0.7,0.65,0.04,0.0,1.0,1.0,0,0,0,0.0,0.0,0.0,0.0
58238,Georgia Mountain Community Wind Farm,Onshore Wind Turbine,VT,VT,44.661667,-73.07,10.0,0.0,NNE,3,WindOn,0,1,1,0,3.0,0.0,0.18,1.0,0.05,0.0,1.0,1.0,0,1,1,0.0,0.0,0.0,0.0
66053,"Generate Colchester Fuel Cells, LLC",Other Natural Gas,CT,CT,41.59413,-72.33131,10.0,0.0,ROP,222,NGCT,1,0,0,0,58.0,0.59,0.86,1.0,0.08,0.12,1.0,1.0,1,1,1,8.0,0.06,0.06,0.09
68493,Central Heating Plant,Natural Gas Fired Combustion Turbine,MA,WCMA,42.390084,-72.537141,10.0,0.0,ROP,98,NGCT,1,0,0,0,58.0,0.59,0.86,1.0,0.08,0.12,1.0,1.0,1,1,1,8.0,0.06,0.06,0.09
61840,"Hope Farm Solar, LLC",Solar Photovoltaic,RI,RI,41.7479,-71.5263,10.0,0.0,SENE,157,SolarPV,0,1,1,0,2.0,0.0,0.26,1.0,0.03,0.0,1.0,1.0,0,1,1,0.0,0.0,0.0,0.0
67143,Tank Farm 4,Solar Photovoltaic,RI,RI,41.57196,-71.28976,10.0,0.0,SENE,155,SolarPV,0,1,1,0,2.0,0.0,0.26,1.0,0.03,0.0,1.0,1.0,0,1,1,0.0,0.0,0.0,0.0
64078,Pittsfield Solar LLC,Solar Photovoltaic,ME,ME,44.814009,-69.449561,9.9,0.0,Maine,174,SolarPV,0,1,1,0,2.0,0.0,0.26,1.0,0.03,0.0,1.0,1.0,0,1,1,0.0,0.0,0.0,0.0
65474,"GDIM 1, LLC",Solar Photovoltaic,RI,RI,41.966678,-71.525993,9.6,0.0,SENE,163,SolarPV,0,1,1,0,2.0,0.0,0.26,1.0,0.03,0.0,1.0,1.0,0,1,1,0.0,0.0,0.0,0.0
65475,"GDIM 2, LLC",Solar Photovoltaic,RI,RI,41.967314,-71.519606,9.6,0.0,SENE,163,SolarPV,0,1,1,0,2.0,0.0,0.26,1.0,0.03,0.0,1.0,1.0,0,1,1,0.0,0.0,0.0,0.0
65476,"GDIM 3, LLC",Solar Photovoltaic,RI,RI,41.963066,-71.516929,9.6,0.0,SENE,163,SolarPV,0,1,1,0,2.0,0.0,0.26,1.0,0.03,0.0,1.0,1.0,0,1,1,0.0,0.0,0.0,0.0
65477,"GDIM 4, LLC",Solar Photovoltaic,RI,RI,41.963066,-71.516929,9.6,0.0,SENE,163,SolarPV,0,1,1,0,2.0,0.0,0.26,1.0,0.03,0.0,1.0,1.0,0,1,1,0.0,0.0,0.0,0.0
54236,Pfizer Groton Plant,Natural Gas Fired Combustion Turbine,CT,CT,41.3315,-72.0786,9.5,0.0,ROP,92,NGCT,1,0,0,0,58.0,0.59,0.86,1.0,0.08,0.12,1.0,1.0,1,1,1,8.0,0.06,0.06,0.09
63897,Oxford PV - BD Solar Oxford LLC,Solar Photovoltaic,ME,ME,44.151,-70.476,9.2,0.0,Maine,207,SolarPV,0,1,1,0,2.0,0.0,0.26,1.0,0.03,0.0,1.0,1.0,0,1,1,0.0,0.0,0.0,0.0
60404,Pisgah Mountain Wind,Onshore Wind Turbine,ME,ME,44.777337,-68.523419,9.1,0.0,Maine,188,WindOn,0,1,1,0,3.0,0.0,0.18,1.0,0.05,0.0,1.0,1.0,0,1,1,0.0,0.0,0.0,0.0
3708,Ascutney,Petroleum Liquids,VT,VT,43.4011,-72.4203,9.0,0.0,NNE,1,Oil,1,0,0,0,92.0,0.82,0.88,1.0,0.1,0.08,1.0,1.0,1,1,1,10.0,0.04,0.04,0.06
10823,Deer Island Treatment Plant,Other Waste Biomass,MA,NEMA/Boston,42.353333,-70.962778,9.0,0.0,SENE,156,Bio,1,1,0,0,39.0,0.1,0.9,0.9,0.08,0.06,0.4,0.4,1,6,6,6.0,0.03,0.03,0.045
3735,Colchester 16,Petroleum Liquids,VT,VT,44.4906,-73.1703,8.7,0.0,NNE,3,Oil,1,0,0,0,92.0,0.82,0.88,1.0,0.1,0.08,1.0,1.0,1,1,1,10.0,0.04,0.04,0.06
1493,Hiram,Conventional Hydroelectric,ME,ME,43.8525,-70.7969,8.5,0.0,Maine,215,Hydro,0,1,0,0,7.5,0.0,0.7,0.65,0.04,0.0,1.0,1.0,0,0,0,0.0,0.0,0.0,0.0
64408,Georges River Energy,Wood/Wood Waste Biomass,ME,ME,44.3331,-69.2019,8.5,0.0,Maine,74,Bio,1,1,0,0,39.0,0.1,0.9,0.9,0.08,0.06,0.4,0.4,1,6,6,6.0,0.03,0.03,0.045
3723,Rutland,Petroleum Liquids,VT,VT,43.603,-72.9923,8.4,0.0,NNE,43,Oil,1,0,0,0,92.0,0.82,0.88,1.0,0.1,0.08,1.0,1.0,1,1,1,10.0,0.04,0.04,0.06
67117,"Rhode Island Solar Renewable Energy IV,",Solar Photovoltaic,RI,RI,41.613,-71.156,8.4,0.0,SENE,155,SolarPV,0,1,1,0,2.0,0.0,0.26,1.0,0.03,0.0,1.0,1.0,0,1,1,0.0,0.0,0.0,0.0
1486,Cataract Hydro,Conventional Hydroelectric,ME,ME,43.4956,-70.4472,8.0,0.0,Maine,145,Hydro,0,1,0,0,7.5,0.0,0.7,0.65,0.04,0.0,1.0,1.0,0,0,0,0.0,0.0,0.0,0.0
65949,Kearsarge Smithfield LLC,Solar Photovoltaic,RI,RI,41.93139,-71.57895,8.0,0.0,SENE,163,SolarPV,0,1,1,0,2.0,0.0,0.26,1.0,0.03,0.0,1.0,1.0,0,1,1,0.0,0.0,0.0,0.0
58180,UNH 7.9 MW Plant,Landfill Gas,NH,NH,43.13674,-70.936125,7.9,0.0,NNE,128,Bio,1,1,0,0,39.0,0.1,0.9,0.9,0.08,0.06,0.4,0.4,1,6,6,6.0,0.03,0.03,0.045
59622,Future Generation Wind,Onshore Wind Turbine,MA,SEMA,41.774444,-70.615833,7.9,0.0,SENE,42,WindOn,0,1,1,0,3.0,0.0,0.18,1.0,0.05,0.0,1.0,1.0,0,1,1,0.0,0.0,0.0,0.0
63895,Augusta PV - BD Solar Augusta LLC,Solar Photovoltaic,ME,ME,44.328,-69.731,7.2,0.0,Maine,187,SolarPV,0,1,1,0,2.0,0.0,0.26,1.0,0.03,0.0,1.0,1.0,0,1,1,0.0,0.0,0.0,0.0
54225,Gillette SBMC,Natural Gas Fired Combustion Turbine,MA,NEMA/Boston,42.3436,-71.0559,7.2,0.0,SENE,156,NGCT,1,0,0,0,58.0,0.59,0.86,1.0,0.08,0.12,1.0,1.0,1,1,1,8.0,0.06,0.06,0.09
60457,Athens Energy,Wood/Wood Waste Biomass,ME,ME,44.945514,-69.660705,7.1,0.0,Maine,53,Bio,1,1,0,0,39.0,0.1,0.9,0.9,0.08,0.06,0.4,0.4,1,6,6,6.0,0.03,0.03,0.045
64068,BD Solar Hancock LLC,Solar Photovoltaic,ME,ME,44.535671,-68.354732,7.0,0.0,Maine,190,SolarPV,0,1,1,0,2.0,0.0,0.26,1.0,0.03,0.0,1.0,1.0,0,1,1,0.0,0.0,0.0,0.0
64069,Winslow PV - BD Solar 2 LLC,Solar Photovoltaic,ME,ME,44.56,-69.59,7.0,0.0,Maine,174,SolarPV,0,1,1,0,2.0,0.0,0.26,1.0,0.03,0.0,1.0,1.0,0,1,1,0.0,0.0,0.0,0.0
64070,BD Solar Ellsworth LLC,Solar Photovoltaic,ME,ME,44.534547,-68.378789,7.0,0.0,Maine,190,SolarPV,0,1,1,0,2.0,0.0,0.26,1.0,0.03,0.0,1.0,1.0,0,1,1,0.0,0.0,0.0,0.0
6081,Stony Brook,Solar Photovoltaic,MA,WCMA,42.1978,-72.5106,6.9,0.0,ROP,200,SolarPV,0,1,1,0,2.0,0.0,0.26,1.0,0.03,0.0,1.0,1.0,0,1,1,0.0,0.0,0.0,0.0
50999,Aziscohos Hydroelectric Project,Conventional Hydroelectric,ME,ME,44.9439,-70.9975,6.8,0.0,Maine,209,Hydro,0,1,0,0,7.5,0.0,0.7,0.65,0.04,0.0,1.0,1.0,0,0,0,0.0,0.0,0.0,0.0
61857,Toray Plastic America's CHP Plant,Natural Gas Fired Combustion Turbine,RI,RI,41.593802,-71.427609,6.8,0.0,SENE,86,NGCT,1,0,0,0,58.0,0.59,0.86,1.0,0.08,0.12,1.0,1.0,1,1,1,8.0,0.06,0.06,0.09
60621,Worcester Landfill,Solar Photovoltaic,MA,WCMA,42.219,-71.791,6.5,0.0,ROP,24,SolarPV,0,1,1,0,2.0,0.0,0.26,1.0,0.03,0.0,1.0,1.0,0,1,1,0.0,0.0,0.0,0.0
66584,White Rock Road LLC,Solar Photovoltaic,RI,RI,41.400949,-71.839504,6.5,0.0,SENE,86,SolarPV,0,1,1,0,2.0,0.0,0.26,1.0,0.03,0.0,1.0,1.0,0,1,1,0.0,0.0,0.0,0.0
58682,Dartmouth,Solar Photovoltaic,MA,SEMA,41.676111,-70.996944,6.3,0.0,SENE,79,SolarPV,0,1,1,0,2.0,0.0,0.26,1.0,0.03,0.0,1.0,1.0,0,1,1,0.0,0.0,0.0,0.0
52061,Hartford Hospital Cogeneration,Natural Gas Fired Combined Cycle,CT,CT,41.7631,-72.6733,6.2,0.0,ROP,23,NGCC,1,0,0,0,34.0,0.4,0.92,1.0,0.06,0.1,0.5,0.5,1,4,4,6.0,0.05,0.05,0.075
6012,Sherman,Conventional Hydroelectric,MA,WCMA,42.7297,-72.9303,6.1,0.0,ROP,146,Hydro,0,1,0,0,7.5,0.0,0.7,0.65,0.04,0.0,1.0,1.0,0,0,0,0.0,0.0,0.0,0.0
50087,Univ of Massachusetts Medical Center,Natural Gas Fired Combustion Turbine,MA,WCMA,42.279015,-71.759772,6.0,0.0,ROP,24,NGCT,1,0,0,0,58.0,0.59,0.86,1.0,0.08,0.12,1.0,1.0,1,1,1,8.0,0.06,0.06,0.09
3720,Peterson,Conventional Hydroelectric,VT,VT,44.6381,-73.1625,5.8,0.0,NNE,3,Hydro,0,1,0,0,7.5,0.0,0.7,0.65,0.04,0.0,1.0,1.0,0,0,0,0.0,0.0,0.0,0.0
61755,"East Acres Solar NG, LLC",Solar Photovoltaic,MA,WCMA,42.487476,-73.242331,5.8,0.0,ROP,98,SolarPV,0,1,1,0,2.0,0.0,0.26,1.0,0.03,0.0,1.0,1.0,0,1,1,0.0,0.0,0.0,0.0
54228,Erving Paper Mills,Natural Gas Fired Combustion Turbine,MA,WCMA,42.5983,-72.3875,5.5,0.0,ROP,146,NGCT,1,0,0,0,58.0,0.59,0.86,1.0,0.08,0.12,1.0,1.0,1,1,1,8.0,0.06,0.06,0.09
7381,Searsburg Wind Turbine,Onshore Wind Turbine,VT,VT,42.8625,-72.9628,5.2,0.0,NNE,43,WindOn,0,1,1,0,3.0,0.0,0.18,1.0,0.05,0.0,1.0,1.0,0,1,1,0.0,0.0,0.0,0.0
10255,West Enfield Hydro,Conventional Hydroelectric,ME,ME,45.2497,-68.6483,5.1,0.0,Maine,185,Hydro,0,1,0,0,7.5,0.0,0.7,0.65,0.04,0.0,1.0,1.0,0,0,0,0.0,0.0,0.0,0.0
63896,Fairfield PV - BD Solar Fairfield LLC,Solar Photovoltaic,ME,ME,44.634,-69.597,5.0,0.0,Maine,174,SolarPV,0,1,1,0,2.0,0.0,0.26,1.0,0.03,0.0,1.0,1.0,0,1,1,0.0,0.0,0.0,0.0
64062,Palmyra PV - BD Solar Palmyra LLC,Solar Photovoltaic,ME,ME,44.84,-69.31,5.0,0.0,Maine,184,SolarPV,0,1,1,0,2.0,0.0,0.26,1.0,0.03,0.0,1.0,1.0,0,1,1,0.0,0.0,0.0,0.0
65112,River Road,Solar Photovoltaic,ME,ME,44.74111,-69.762861,5.0,0.0,Maine,174,SolarPV,0,1,1,0,2.0,0.0,0.26,1.0,0.03,0.0,1.0,1.0,0,1,1,0.0,0.0,0.0,0.0
65342,Gorham Solar 1 (CSG),Solar Photovoltaic,ME,ME,43.660252,-70.410498,5.0,0.0,Maine,145,SolarPV,0,1,1,0,2.0,0.0,0.26,1.0,0.03,0.0,1.0,1.0,0,1,1,0.0,0.0,0.0,0.0
65461,Unity Solar,Solar Photovoltaic,ME,ME,44.598,-69.357,5.0,0.0,Maine,174,SolarPV,0,1,1,0,2.0,0.0,0.26,1.0,0.03,0.0,1.0,1.0,0,1,1,0.0,0.0,0.0,0.0
65532,Baldwin (ME),Solar Photovoltaic,ME,ME,43.79322,-70.75685,5.0,0.0,Maine,215,SolarPV,0,1,1,0,2.0,0.0,0.26,1.0,0.03,0.0,1.0,1.0,0,1,1,0.0,0.0,0.0,0.0
65534,Monmouth,Solar Photovoltaic,ME,ME,44.192188,-70.021685,5.0,0.0,Maine,187,SolarPV,0,1,1,0,2.0,0.0,0.26,1.0,0.03,0.0,1.0,1.0,0,1,1,0.0,0.0,0.0,0.0
65858,Dynamic Corinth (CSG),Solar Photovoltaic,ME,ME,45.011548,-69.0267,5.0,0.0,Maine,184,SolarPV,0,1,1,0,2.0,0.0,0.26,1.0,0.03,0.0,1.0,1.0,0,1,1,0.0,0.0,0.0,0.0
65859,Dynamic Madison (CSG),Solar Photovoltaic,ME,ME,44.791662,-69.7374,5.0,0.0,Maine,53,SolarPV,0,1,1,0,2.0,0.0,0.26,1.0,0.03,0.0,1.0,1.0,0,1,1,0.0,0.0,0.0,0.0
66100,Water Street Solar,Solar Photovoltaic,ME,ME,44.2424,-69.7543,5.0,0.0,Maine,187,SolarPV,0,1,1,0,2.0,0.0,0.26,1.0,0.03,0.0,1.0,1.0,0,1,1,0.0,0.0,0.0,0.0
66136,"AES Daigle Solar, LLC",Solar Photovoltaic,ME,ME,47.2779,-68.5713,5.0,0.0,Maine,189,SolarPV,0,1,1,0,2.0,0.0,0.26,1.0,0.03,0.0,1.0,1.0,0,1,1,0.0,0.0,0.0,0.0
66876,Cenergy - Waterville (CSG),Solar Photovoltaic,ME,ME,44.538719,-69.668883,5.0,0.0,Maine,174,SolarPV,0,1,1,0,2.0,0.0,0.26,1.0,0.03,0.0,1.0,1.0,0,1,1,0.0,0.0,0.0,0.0
66878,Cenergy - Wiscasset (CSG),Solar Photovoltaic,ME,ME,43.964548,-69.704763,5.0,0.0,Maine,17,SolarPV,0,1,1,0,2.0,0.0,0.26,1.0,0.03,0.0,1.0,1.0,0,1,1,0.0,0.0,0.0,0.0
66962,ME Novel Lighthouse - Carrabassett,Solar Photovoltaic,ME,ME,45.101453,-70.341231,5.0,0.0,Maine,141,SolarPV,0,1,1,0,2.0,0.0,0.26,1.0,0.03,0.0,1.0,1.0,0,1,1,0.0,0.0,0.0,0.0
67061,Fort Fairfield,Solar Photovoltaic,ME,ME,46.773222,-67.850833,5.0,0.0,Maine,189,SolarPV,0,1,1,0,2.0,0.0,0.26,1.0,0.03,0.0,1.0,1.0,0,1,1,0.0,0.0,0.0,0.0
67194,ME - EDFR - Phase I - Bristol,Solar Photovoltaic,ME,ME,43.965641,-69.518107,5.0,0.0,Maine,245,SolarPV,0,1,1,0,2.0,0.0,0.26,1.0,0.03,0.0,1.0,1.0,0,1,1,0.0,0.0,0.0,0.0
67286,Athens AT01,Solar Photovoltaic,ME,ME,44.9485,-69.6523,5.0,0.0,Maine,53,SolarPV,0,1,1,0,2.0,0.0,0.26,1.0,0.03,0.0,1.0,1.0,0,1,1,0.0,0.0,0.0,0.0
67333,Standish,Solar Photovoltaic,ME,ME,43.7511,-70.5466,5.0,0.0,Maine,145,SolarPV,0,1,1,0,2.0,0.0,0.26,1.0,0.03,0.0,1.0,1.0,0,1,1,0.0,0.0,0.0,0.0
67336,Town House,Solar Photovoltaic,ME,ME,44.28,-69.74456,5.0,0.0,Maine,187,SolarPV,0,1,1,0,2.0,0.0,0.26,1.0,0.03,0.0,1.0,1.0,0,1,1,0.0,0.0,0.0,0.0
67349,ME-EDFR-Phase I-Woolwich,Solar Photovoltaic,ME,ME,43.93795,-69.784175,5.0,0.0,Maine,17,SolarPV,0,1,1,0,2.0,0.0,0.26,1.0,0.03,0.0,1.0,1.0,0,1,1,0.0,0.0,0.0,0.0
67350,ME-EDFR-Phase I-Embden,Solar Photovoltaic,ME,ME,44.949,-69.879131,5.0,0.0,Maine,141,SolarPV,0,1,1,0,2.0,0.0,0.26,1.0,0.03,0.0,1.0,1.0,0,1,1,0.0,0.0,0.0,0.0
67375,"BWC Beech Ridge Brook, LLC",Solar Photovoltaic,ME,ME,43.614962,-70.408017,5.0,0.0,Maine,145,SolarPV,0,1,1,0,2.0,0.0,0.26,1.0,0.03,0.0,1.0,1.0,0,1,1,0.0,0.0,0.0,0.0
67400,North Bridgton,Solar Photovoltaic,ME,ME,44.1012,-70.70577,5.0,0.0,Maine,215,SolarPV,0,1,1,0,2.0,0.0,0.26,1.0,0.03,0.0,1.0,1.0,0,1,1,0.0,0.0,0.0,0.0
67438,Oakland,Solar Photovoltaic,ME,ME,44.57221,-69.6917,5.0,0.0,Maine,174,SolarPV,0,1,1,0,2.0,0.0,0.26,1.0,0.03,0.0,1.0,1.0,0,1,1,0.0,0.0,0.0,0.0
67448,Quarry,Solar Photovoltaic,ME,ME,43.33777,-70.73331,5.0,0.0,Maine,145,SolarPV,0,1,1,0,2.0,0.0,0.26,1.0,0.03,0.0,1.0,1.0,0,1,1,0.0,0.0,0.0,0.0
67449,Ryans Ranch,Solar Photovoltaic,ME,ME,44.179791,-70.514579,5.0,0.0,Maine,207,SolarPV,0,1,1,0,2.0,0.0,0.26,1.0,0.03,0.0,1.0,1.0,0,1,1,0.0,0.0,0.0,0.0
67453,Shaker,Solar Photovoltaic,ME,ME,43.89492,-70.34346,5.0,0.0,Maine,63,SolarPV,0,1,1,0,2.0,0.0,0.26,1.0,0.03,0.0,1.0,1.0,0,1,1,0.0,0.0,0.0,0.0
68625,Bates College Skowhegan,Solar Photovoltaic,ME,ME,44.75753,-69.63688,5.0,0.0,Maine,174,SolarPV,0,1,1,0,2.0,0.0,0.26,1.0,0.03,0.0,1.0,1.0,0,1,1,0.0,0.0,0.0,0.0
10526,Dodge Falls Associates,Conventional Hydroelectric,NH,NH,44.2081,-72.0581,5.0,0.0,NNE,132,Hydro,0,1,0,0,7.5,0.0,0.7,0.65,0.04,0.0,1.0,1.0,0,0,0,0.0,0.0,0.0,0.0
3739,Marshfield 6,Conventional Hydroelectric,VT,VT,44.3606,-72.3356,5.0,0.0,NNE,181,Hydro,0,1,0,0,7.5,0.0,0.7,0.65,0.04,0.0,1.0,1.0,0,0,0,0.0,0.0,0.0,0.0
6520,Waterbury 22,Conventional Hydroelectric,VT,VT,44.38126,-72.76769,5.0,0.0,NNE,181,Hydro,0,1,0,0,7.5,0.0,0.7,0.65,0.04,0.0,1.0,1.0,0,0,0,0.0,0.0,0.0,0.0
60874,GMP Solar - Hartford,Solar Photovoltaic,VT,VT,43.632074,-72.418566,5.0,0.0,NNE,1,SolarPV,0,1,1,0,2.0,0.0,0.26,1.0,0.03,0.0,1.0,1.0,0,1,1,0.0,0.0,0.0,0.0
60877,GMP Solar - Williamstown,Solar Photovoltaic,VT,VT,44.136051,-72.510509,5.0,0.0,NNE,139,SolarPV,0,1,1,0,2.0,0.0,0.26,1.0,0.03,0.0,1.0,1.0,0,1,1,0.0,0.0,0.0,0.0
61124,Elizabeth Mines Solar 1,Solar Photovoltaic,VT,VT,43.823611,-72.33111,5.0,0.0,NNE,2,SolarPV,0,1,1,0,2.0,0.0,0.26,1.0,0.03,0.0,1.0,1.0,0,1,1,0.0,0.0,0.0,0.0
62381,GMP Solar/Storage-Milton Hybrid,Solar Photovoltaic,VT,VT,44.392141,-73.10233,5.0,0.0,NNE,3,SolarPV,0,1,1,0,2.0,0.0,0.26,1.0,0.03,0.0,1.0,1.0,0,1,1,0.0,0.0,0.0,0.0
62382,GMP Solar/Storage-Ferrisburgh Hybrid,Solar Photovoltaic,VT,VT,44.133411,-73.144064,5.0,0.0,NNE,30,SolarPV,0,1,1,0,2.0,0.0,0.26,1.0,0.03,0.0,1.0,1.0,0,1,1,0.0,0.0,0.0,0.0
66166,South Street - Middlebury,Solar Photovoltaic,VT,VT,43.986404,-73.174874,5.0,0.0,NNE,40,SolarPV,0,1,1,0,2.0,0.0,0.26,1.0,0.03,0.0,1.0,1.0,0,1,1,0.0,0.0,0.0,0.0
69002,Brattleboro (Windham Landfill),Solar Photovoltaic,VT,VT,42.89335,-72.54054,5.0,0.0,NNE,43,SolarPV,0,1,1,0,2.0,0.0,0.26,1.0,0.03,0.0,1.0,1.0,0,1,1,0.0,0.0,0.0,0.0
58554,"Somers Solar Center, LLC",Solar Photovoltaic,CT,CT,41.955,-72.445833,5.0,0.0,ROP,198,SolarPV,0,1,1,0,2.0,0.0,0.26,1.0,0.03,0.0,1.0,1.0,0,1,1,0.0,0.0,0.0,0.0
60700,Wind Colebrook South,Onshore Wind Turbine,CT,CT,41.961067,-73.140779,5.0,0.0,ROP,228,WindOn,0,1,1,0,3.0,0.0,0.18,1.0,0.05,0.0,1.0,1.0,0,1,1,0.0,0.0,0.0,0.0
63302,South Windsor Fuel Cell,Other Natural Gas,CT,CT,41.815417,-72.614377,5.0,0.0,ROP,196,NGCT,1,0,0,0,58.0,0.59,0.86,1.0,0.08,0.12,1.0,1.0,1,1,1,8.0,0.06,0.06,0.09
65667,East Windsor Solar One,Solar Photovoltaic,CT,CT,41.89,-72.518,5.0,0.0,ROP,199,SolarPV,0,1,1,0,2.0,0.0,0.26,1.0,0.03,0.0,1.0,1.0,0,1,1,0.0,0.0,0.0,0.0
58276,Mass Midstate Solar 2,Solar Photovoltaic,MA,WCMA,42.170417,-72.200145,5.0,0.0,ROP,24,SolarPV,0,1,1,0,2.0,0.0,0.26,1.0,0.03,0.0,1.0,1.0,0,1,1,0.0,0.0,0.0,0.0
58279,Mass Midstate Solar 1,Solar Photovoltaic,MA,WCMA,42.219722,-71.878333,5.0,0.0,ROP,24,SolarPV,0,1,1,0,2.0,0.0,0.26,1.0,0.03,0.0,1.0,1.0,0,1,1,0.0,0.0,0.0,0.0
59781,Upper Blackstone (MA) Treasure Valley,Solar Photovoltaic,MA,WCMA,42.332831,-71.987633,5.0,0.0,ROP,250,SolarPV,0,1,1,0,2.0,0.0,0.26,1.0,0.03,0.0,1.0,1.0,0,1,1,0.0,0.0,0.0,0.0
62059,East Longmeadow Solar PV,Solar Photovoltaic,MA,WCMA,42.046767,-72.459123,5.0,0.0,ROP,179,SolarPV,0,1,1,0,2.0,0.0,0.26,1.0,0.03,0.0,1.0,1.0,0,1,1,0.0,0.0,0.0,0.0
62082,Southwick Solar PV,Solar Photovoltaic,MA,WCMA,42.05,-72.75,5.0,0.0,ROP,200,SolarPV,0,1,1,0,2.0,0.0,0.26,1.0,0.03,0.0,1.0,1.0,0,1,1,0.0,0.0,0.0,0.0
62583,Tanglewood Circle Solar 1 LLC,Solar Photovoltaic,MA,WCMA,42.252046,-73.109957,5.0,0.0,ROP,98,SolarPV,0,1,1,0,2.0,0.0,0.26,1.0,0.03,0.0,1.0,1.0,0,1,1,0.0,0.0,0.0,0.0
62652,Happy Hollow CSG Hybrid,Solar Photovoltaic,MA,WCMA,42.606995,-72.045291,5.0,0.0,ROP,176,SolarPV,0,1,1,0,2.0,0.0,0.26,1.0,0.03,0.0,1.0,1.0,0,1,1,0.0,0.0,0.0,0.0
62897,Holiday Hill Community Wind,Onshore Wind Turbine,MA,WCMA,42.212535,-72.871262,5.0,0.0,ROP,249,WindOn,0,1,1,0,3.0,0.0,0.18,1.0,0.05,0.0,1.0,1.0,0,1,1,0.0,0.0,0.0,0.0
62969,Syncarpha Puddon I Hybrid CSG,Solar Photovoltaic,MA,WCMA,42.139492,-71.633132,5.0,0.0,ROP,24,SolarPV,0,1,1,0,2.0,0.0,0.26,1.0,0.03,0.0,1.0,1.0,0,1,1,0.0,0.0,0.0,0.0
62970,Syncarpha Puddon II Hybrid CSG,Solar Photovoltaic,MA,WCMA,42.133867,-71.631045,5.0,0.0,ROP,24,SolarPV,0,1,1,0,2.0,0.0,0.26,1.0,0.03,0.0,1.0,1.0,0,1,1,0.0,0.0,0.0,0.0
62974,Syncarpha Millbury Hybrid (CSG),Solar Photovoltaic,MA,WCMA,42.175203,-71.793031,5.0,0.0,ROP,24,SolarPV,0,1,1,0,2.0,0.0,0.26,1.0,0.03,0.0,1.0,1.0,0,1,1,0.0,0.0,0.0,0.0
62977,Syncarpha Northbridge I Hybrid(CSG),Solar Photovoltaic,MA,WCMA,42.11239,-71.648261,5.0,0.0,ROP,24,SolarPV,0,1,1,0,2.0,0.0,0.26,1.0,0.03,0.0,1.0,1.0,0,1,1,0.0,0.0,0.0,0.0
62978,Syncarpha Northbridge II Hybrid CSG,Solar Photovoltaic,MA,WCMA,42.115652,-71.644047,5.0,0.0,ROP,24,SolarPV,0,1,1,0,2.0,0.0,0.26,1.0,0.03,0.0,1.0,1.0,0,1,1,0.0,0.0,0.0,0.0
63047,W. Orange Rd Solar LLC,Solar Photovoltaic,MA,WCMA,42.6026,-72.3418,5.0,0.0,ROP,146,SolarPV,0,1,1,0,2.0,0.0,0.26,1.0,0.03,0.0,1.0,1.0,0,1,1,0.0,0.0,0.0,0.0
63048,Wilbur Woods Solar LLC,Solar Photovoltaic,MA,WCMA,42.6113,-72.3452,5.0,0.0,ROP,146,SolarPV,0,1,1,0,2.0,0.0,0.26,1.0,0.03,0.0,1.0,1.0,0,1,1,0.0,0.0,0.0,0.0
63131,West Street Solar 1 LLC,Solar Photovoltaic,MA,WCMA,42.595,-72.0446,5.0,0.0,ROP,176,SolarPV,0,1,1,0,2.0,0.0,0.26,1.0,0.03,0.0,1.0,1.0,0,1,1,0.0,0.0,0.0,0.0
63805,Williamsville Hybrid CSG,Solar Photovoltaic,MA,WCMA,42.469505,-72.069781,5.0,0.0,ROP,176,SolarPV,0,1,1,0,2.0,0.0,0.26,1.0,0.03,0.0,1.0,1.0,0,1,1,0.0,0.0,0.0,0.0
64014,28 Livermore Hill Road Solar,Solar Photovoltaic,MA,WCMA,42.55151,-71.951107,5.0,0.0,ROP,176,SolarPV,0,1,1,0,2.0,0.0,0.26,1.0,0.03,0.0,1.0,1.0,0,1,1,0.0,0.0,0.0,0.0
64129,East Brookfield Adams Road Solar LLC CSG,Solar Photovoltaic,MA,WCMA,42.196032,-72.03084,5.0,0.0,ROP,24,SolarPV,0,1,1,0,2.0,0.0,0.26,1.0,0.03,0.0,1.0,1.0,0,1,1,0.0,0.0,0.0,0.0
64432,Breckenridge Solar,Solar Photovoltaic,MA,WCMA,42.17406,-72.315802,5.0,0.0,ROP,200,SolarPV,0,1,1,0,2.0,0.0,0.26,1.0,0.03,0.0,1.0,1.0,0,1,1,0.0,0.0,0.0,0.0
64664,"Clark Road Solar 1, LLC",Solar Photovoltaic,MA,WCMA,42.59613,-72.020244,5.0,0.0,ROP,176,SolarPV,0,1,1,0,2.0,0.0,0.26,1.0,0.03,0.0,1.0,1.0,0,1,1,0.0,0.0,0.0,0.0
64726,West Haydenville PJ Community Solar,Solar Photovoltaic,MA,WCMA,42.3831,-72.7111,5.0,0.0,ROP,98,SolarPV,0,1,1,0,2.0,0.0,0.26,1.0,0.03,0.0,1.0,1.0,0,1,1,0.0,0.0,0.0,0.0
65015,ASD Wallum MA Solar LLC(CSG),Solar Photovoltaic,MA,WCMA,42.011623,-71.760489,5.0,0.0,ROP,24,SolarPV,0,1,1,0,2.0,0.0,0.26,1.0,0.03,0.0,1.0,1.0,0,1,1,0.0,0.0,0.0,0.0
65175,"ENGIE 2019 ProjectCo-MA1, LLC",Solar Photovoltaic,MA,WCMA,42.041614,-72.653224,5.0,0.0,ROP,179,SolarPV,0,1,1,0,2.0,0.0,0.26,1.0,0.03,0.0,1.0,1.0,0,1,1,0.0,0.0,0.0,0.0
65717,Settlers Solar,Solar Photovoltaic,MA,WCMA,42.60734,-71.76125,5.0,0.0,ROP,176,SolarPV,0,1,1,0,2.0,0.0,0.26,1.0,0.03,0.0,1.0,1.0,0,1,1,0.0,0.0,0.0,0.0
66180,Huxley Solar,Solar Photovoltaic,MA,WCMA,42.197564,-72.48015,5.0,0.0,ROP,200,SolarPV,0,1,1,0,2.0,0.0,0.26,1.0,0.03,0.0,1.0,1.0,0,1,1,0.0,0.0,0.0,0.0
66181,"Beacon Solar, LLC",Solar Photovoltaic,MA,WCMA,42.284,-72.677,5.0,0.0,ROP,249,SolarPV,0,1,1,0,2.0,0.0,0.26,1.0,0.03,0.0,1.0,1.0,0,1,1,0.0,0.0,0.0,0.0
66585,French King Solar LLC,Solar Photovoltaic,MA,WCMA,42.5945,-72.4895,5.0,0.0,ROP,146,SolarPV,0,1,1,0,2.0,0.0,0.26,1.0,0.03,0.0,1.0,1.0,0,1,1,0.0,0.0,0.0,0.0
67477,Pulpit Hill,Solar Photovoltaic,MA,WCMA,42.410571,-72.531168,5.0,0.0,ROP,98,SolarPV,0,1,1,0,2.0,0.0,0.26,1.0,0.03,0.0,1.0,1.0,0,1,1,0.0,0.0,0.0,0.0
68651,New Marlborough,Solar Photovoltaic,MA,WCMA,42.15208,-73.27795,5.0,0.0,ROP,98,SolarPV,0,1,1,0,2.0,0.0,0.26,1.0,0.03,0.0,1.0,1.0,0,1,1,0.0,0.0,0.0,0.0
68656,Tolland,Solar Photovoltaic,MA,WCMA,42.08722,-73.0116,5.0,0.0,ROP,249,SolarPV,0,1,1,0,2.0,0.0,0.26,1.0,0.03,0.0,1.0,1.0,0,1,1,0.0,0.0,0.0,0.0
68657,Westhampton,Solar Photovoltaic,MA,WCMA,42.33515,-72.73866,5.0,0.0,ROP,98,SolarPV,0,1,1,0,2.0,0.0,0.26,1.0,0.03,0.0,1.0,1.0,0,1,1,0.0,0.0,0.0,0.0
68743,Adams Grove Solar,Solar Photovoltaic,MA,WCMA,42.60783,-73.135655,5.0,0.0,ROP,98,SolarPV,0,1,1,0,2.0,0.0,0.26,1.0,0.03,0.0,1.0,1.0,0,1,1,0.0,0.0,0.0,0.0
54225,Gillette SBMC,Natural Gas Steam Turbine,MA,NEMA/Boston,42.3436,-71.0559,5.0,0.0,SENE,156,NGCT,1,0,0,0,58.0,0.59,0.86,1.0,0.08,0.12,1.0,1.0,1,1,1,8.0,0.06,0.06,0.09
59082,Dennis Landfill,Solar Photovoltaic,MA,SEMA,41.693056,-70.145,5.0,0.0,SENE,42,SolarPV,0,1,1,0,2.0,0.0,0.26,1.0,0.03,0.0,1.0,1.0,0,1,1,0.0,0.0,0.0,0.0
59396,Shaffer,Solar Photovoltaic,MA,NEMA/Boston,42.594167,-71.249444,5.0,0.0,SENE,234,SolarPV,0,1,1,0,2.0,0.0,0.26,1.0,0.03,0.0,1.0,1.0,0,1,1,0.0,0.0,0.0,0.0
61008,Brook Street Solar 1 CSG,Solar Photovoltaic,MA,SEMA,41.955897,-70.786125,5.0,0.0,SENE,84,SolarPV,0,1,1,0,2.0,0.0,0.26,1.0,0.03,0.0,1.0,1.0,0,1,1,0.0,0.0,0.0,0.0
63214,Middleton Solar Park,Solar Photovoltaic,MA,NEMA/Boston,42.581678,-70.998672,5.0,0.0,SENE,231,SolarPV,0,1,1,0,2.0,0.0,0.26,1.0,0.03,0.0,1.0,1.0,0,1,1,0.0,0.0,0.0,0.0
63475,Randall Solar Project Hybrid,Solar Photovoltaic,MA,NEMA/Boston,42.3921,-71.6611,5.0,0.0,SENE,120,SolarPV,0,1,1,0,2.0,0.0,0.26,1.0,0.03,0.0,1.0,1.0,0,1,1,0.0,0.0,0.0,0.0
64107,Canton,Solar Photovoltaic,MA,NEMA/Boston,42.145126,-71.130918,5.0,0.0,SENE,28,SolarPV,0,1,1,0,2.0,0.0,0.26,1.0,0.03,0.0,1.0,1.0,0,1,1,0.0,0.0,0.0,0.0
64109,Ravenbrook,Solar Photovoltaic,MA,SEMA,41.919675,-70.819421,5.0,0.0,SENE,84,SolarPV,0,1,1,0,2.0,0.0,0.26,1.0,0.03,0.0,1.0,1.0,0,1,1,0.0,0.0,0.0,0.0
64110,Hudson,Solar Photovoltaic,MA,NEMA/Boston,42.404047,-71.541362,5.0,0.0,SENE,120,SolarPV,0,1,1,0,2.0,0.0,0.26,1.0,0.03,0.0,1.0,1.0,0,1,1,0.0,0.0,0.0,0.0
64147,ZPD-PT Solar Project 2017-038 Hybrid LLC,Solar Photovoltaic,MA,NEMA/Boston,42.516,-71.6734,5.0,0.0,SENE,120,SolarPV,0,1,1,0,2.0,0.0,0.26,1.0,0.03,0.0,1.0,1.0,0,1,1,0.0,0.0,0.0,0.0
64436,Wilmarth Solar,Solar Photovoltaic,MA,SEMA,42.025049,-71.353545,5.0,0.0,SENE,82,SolarPV,0,1,1,0,2.0,0.0,0.26,1.0,0.03,0.0,1.0,1.0,0,1,1,0.0,0.0,0.0,0.0
64588,Adirondack A+B Community Solar Garden,Solar Photovoltaic,MA,SEMA,41.679012,-71.111058,5.0,0.0,SENE,80,SolarPV,0,1,1,0,2.0,0.0,0.26,1.0,0.03,0.0,1.0,1.0,0,1,1,0.0,0.0,0.0,0.0
64627,Blodgett Solar CSG,Solar Photovoltaic,MA,NEMA/Boston,42.678889,-71.445111,5.0,0.0,SENE,234,SolarPV,0,1,1,0,2.0,0.0,0.26,1.0,0.03,0.0,1.0,1.0,0,1,1,0.0,0.0,0.0,0.0
64727,Brookwood Drive Community Solar,Solar Photovoltaic,MA,SEMA,41.59,-71.0942,5.0,0.0,SENE,80,SolarPV,0,1,1,0,2.0,0.0,0.26,1.0,0.03,0.0,1.0,1.0,0,1,1,0.0,0.0,0.0,0.0
64759,Old Middleboro Road Solar,Solar Photovoltaic,MA,SEMA,41.793,-70.820306,5.0,0.0,SENE,167,SolarPV,0,1,1,0,2.0,0.0,0.26,1.0,0.03,0.0,1.0,1.0,0,1,1,0.0,0.0,0.0,0.0
64875,276 Federal Rd(CSG),Solar Photovoltaic,MA,SEMA,41.805144,-70.725244,5.0,0.0,SENE,167,SolarPV,0,1,1,0,2.0,0.0,0.26,1.0,0.03,0.0,1.0,1.0,0,1,1,0.0,0.0,0.0,0.0
64970,59 Federal Rd(CSG),Solar Photovoltaic,MA,SEMA,41.828475,-70.721206,5.0,0.0,SENE,219,SolarPV,0,1,1,0,2.0,0.0,0.26,1.0,0.03,0.0,1.0,1.0,0,1,1,0.0,0.0,0.0,0.0
65055,77 Farm to Market Rd Hybrid(CSG),Solar Photovoltaic,MA,SEMA,41.79455,-70.723394,5.0,0.0,SENE,167,SolarPV,0,1,1,0,2.0,0.0,0.26,1.0,0.03,0.0,1.0,1.0,0,1,1,0.0,0.0,0.0,0.0
65056,160 Tihonet Rd Hybrid(CSG),Solar Photovoltaic,MA,SEMA,41.793414,-70.712667,5.0,0.0,SENE,167,SolarPV,0,1,1,0,2.0,0.0,0.26,1.0,0.03,0.0,1.0,1.0,0,1,1,0.0,0.0,0.0,0.0
65566,Bradford Solar,Solar Photovoltaic,MA,NEMA/Boston,42.751153,-71.094447,5.0,0.0,SENE,234,SolarPV,0,1,1,0,2.0,0.0,0.26,1.0,0.03,0.0,1.0,1.0,0,1,1,0.0,0.0,0.0,0.0
65720,Woodland Avenue Solar 1,Solar Photovoltaic,MA,SEMA,41.8884,-71.31839,5.0,0.0,SENE,87,SolarPV,0,1,1,0,2.0,0.0,0.26,1.0,0.03,0.0,1.0,1.0,0,1,1,0.0,0.0,0.0,0.0
66075,Blacksmith Road Solar 1,Solar Photovoltaic,MA,SEMA,41.60169,-70.605,5.0,0.0,SENE,78,SolarPV,0,1,1,0,2.0,0.0,0.26,1.0,0.03,0.0,1.0,1.0,0,1,1,0.0,0.0,0.0,0.0
66447,Westport Stone & Sand Solar (CSG),Solar Photovoltaic,MA,SEMA,41.621053,-71.05525,5.0,0.0,SENE,80,SolarPV,0,1,1,0,2.0,0.0,0.26,1.0,0.03,0.0,1.0,1.0,0,1,1,0.0,0.0,0.0,0.0
67926,"Plympton Main Street Solar, LLC",Solar Photovoltaic,MA,SEMA,41.972946,-70.805042,5.0,0.0,SENE,84,SolarPV,0,1,1,0,2.0,0.0,0.26,1.0,0.03,0.0,1.0,1.0,0,1,1,0.0,0.0,0.0,0.0
68950,Marston Mills Solar,Solar Photovoltaic,MA,SEMA,41.663333,-70.398889,5.0,0.0,SENE,42,SolarPV,0,1,1,0,2.0,0.0,0.26,1.0,0.03,0.0,1.0,1.0,0,1,1,0.0,0.0,0.0,0.0
62781,"10 Briggs Solar NG, LLC (East)",Solar Photovoltaic,RI,RI,41.63269,-71.49625,5.0,0.0,SENE,169,SolarPV,0,1,1,0,2.0,0.0,0.26,1.0,0.03,0.0,1.0,1.0,0,1,1,0.0,0.0,0.0,0.0
63997,Pine Hill,Solar Photovoltaic,RI,RI,41.821004,-71.562498,5.0,0.0,SENE,241,SolarPV,0,1,1,0,2.0,0.0,0.26,1.0,0.03,0.0,1.0,1.0,0,1,1,0.0,0.0,0.0,0.0
65142,Bristol Landfill Solar,Solar Photovoltaic,RI,RI,41.727627,-71.288487,5.0,0.0,SENE,29,SolarPV,0,1,1,0,2.0,0.0,0.26,1.0,0.03,0.0,1.0,1.0,0,1,1,0.0,0.0,0.0,0.0
65954,Kearsarge West Shore Solar LLC,Solar Photovoltaic,RI,RI,41.6202,-71.26842,5.0,0.0,SENE,155,SolarPV,0,1,1,0,2.0,0.0,0.26,1.0,0.03,0.0,1.0,1.0,0,1,1,0.0,0.0,0.0,0.0
