PlantCode,PlantName,SourceTechnology,State,LoadZone,Latitude,Longitude,Pmax (MW),Pmin (MW),Zone,Bus_id,Type,Flag_thermal,Flag_RET,Flag_VRE,Flag_mustrun,Cost ($/MWh),EF,CC,AF,FOR,RM_SPIN,RU,RD,Flag_UC,Min_down_time,Min_up_time,Start_up_cost ($/MW),RM_REG_UP,RM_REG_DN,RM_NSPIN
1,Bga Klein Muckrow,Biogas | Combustion Engine,DE,50Hertz,52.16851058704875,14.27717961282318,12.493,0.0,50Hertz,B110,Bio,1,1,0,0,39.0,0.1,0.9,0.9,0.08,0.06,0.4,0.4,1,6,6,6.0,0.05,0.05,0.06
2,Sonae Arauco Beeskow Gmbh,Waste | Steam Turbine,DE,50Hertz,52.182234,14.256328,15.8,0.0,50Hertz,B110,MSW,1,1,0,0,32.0,0.08,0.9,0.92,0.08,0.06,0.35,0.35,1,6,6,5.0,0.05,0.05,0.06
3,Bhkw,Natural Gas | Combustion Engine,DE,50Hertz,52.312886235294116,14.487187823529409,0.8500000000000001,0.0,50Hertz,B110,NGCT,1,0,0,0,68.0,0.58,0.86,1.0,0.08,0.12,1.0,1.0,1,1,1,8.0,0.08,0.08,0.1
4,Abr,Solar | PP,DE,50Hertz,52.211235883255625,14.374971860064564,85.17035,0.0,50Hertz,B110,SolarPV,0,1,1,0,2.0,0.0,0.15,1.0,0.03,0.0,1.0,1.0,0,0,0,0.0,0.0,0.0,0.0
5,Abo Wind Wp Schierenberg,Wind | Onshore,DE,50Hertz,52.15162521382289,14.331027310946004,578.75,0.0,50Hertz,B110,WindOn,0,1,1,0,3.0,0.0,0.18,1.0,0.05,0.0,1.0,1.0,0,0,0,0.0,0.0,0.0,0.0
6,Agrar Energie Kleinalsleben Gmbh,Biogas | Combustion Engine,DE,50Hertz,52.11177158071959,11.48636135592692,16.037,0.0,50Hertz,B12,Bio,1,1,0,0,39.0,0.1,0.9,0.9,0.08,0.06,0.4,0.4,1,6,6,6.0,0.05,0.05,0.06
7,Wasserkraftanlage Bode,Hydro | Run-Of-River,DE,50Hertz,51.999,11.309,0.22,0.0,50Hertz,B12,Hydro,0,1,0,0,7.5,0.0,0.7,0.65,0.04,0.0,1.0,1.0,0,0,0,0.0,0.0,0.0,0.0
8,Bhkw Magdeburg,Natural Gas | CCGT,DE,50Hertz,52.07303658645413,11.387831561781553,24.967,0.0,50Hertz,B12,NGCC,1,0,0,0,42.0,0.4,0.92,1.0,0.06,0.1,0.5,0.5,1,4,4,6.0,0.05,0.05,0.075
9,Bhkw,Natural Gas | Combustion Engine,DE,50Hertz,52.13379124250786,11.620490831226338,15.583,0.0,50Hertz,B12,NGCT,1,0,0,0,68.0,0.58,0.86,1.0,0.08,0.12,1.0,1.0,1,1,1,8.0,0.08,0.08,0.1
10,Bhkw,Oil | Combustion Engine,DE,50Hertz,52.11218200381548,11.623947882232343,21.072000000000003,0.0,50Hertz,B12,Oil,1,0,0,0,110.0,0.82,0.88,1.0,0.1,0.08,1.0,1.0,1,1,1,10.0,0.06,0.06,0.08
11,Dampfturbine,Other | Steam Turbine,DE,50Hertz,52.05966366666666,11.572841999999998,4.800000000000001,0.0,50Hertz,B12,Other,1,0,0,0,55.0,0.25,0.85,0.9,0.08,0.05,0.4,0.4,1,4,4,5.0,0.04,0.04,0.05
12,Agravis Landtechnik Oschersleben,Solar | PP,DE,50Hertz,52.09895577338955,11.571897090903065,118.919975,0.0,50Hertz,B12,SolarPV,0,1,1,0,2.0,0.0,0.15,1.0,0.03,0.0,1.0,1.0,0,0,0,0.0,0.0,0.0,0.0
13,Bornstedt,Wind | Onshore,DE,50Hertz,52.13496265338439,11.460940012212792,386.48,0.0,50Hertz,B12,WindOn,0,1,1,0,3.0,0.0,0.18,1.0,0.05,0.0,1.0,1.0,0,0,0,0.0,0.0,0.0,0.0
14,Buch Motormodul,Biogas | Combustion Engine,DE,50Hertz,52.634728,13.509710000000002,1.38,0.0,50Hertz,B130,Bio,1,1,0,0,39.0,0.1,0.9,0.9,0.08,0.06,0.4,0.4,1,6,6,6.0,0.05,0.05,0.06
15,Buch Gasturbine,Natural Gas | CCGT,DE,50Hertz,52.634728,13.50971,7.54,0.0,50Hertz,B130,NGCC,1,0,0,0,42.0,0.4,0.92,1.0,0.06,0.1,0.5,0.5,1,4,4,6.0,0.05,0.05,0.075
16,Buch Motormodul,Natural Gas | Combustion Engine,DE,50Hertz,52.634728,13.509709999999998,0.89,0.0,50Hertz,B130,NGCT,1,0,0,0,68.0,0.58,0.86,1.0,0.08,0.12,1.0,1.0,1,1,1,8.0,0.08,0.08,0.1
17,Netzersatzanlage Hauptgebaude Kva,Oil | Combustion Engine,DE,50Hertz,52.629781,13.508488,1.79,0.0,50Hertz,B130,Oil,1,0,0,0,110.0,0.82,0.88,1.0,0.1,0.08,1.0,1.0,1,1,1,10.0,0.06,0.06,0.08
18,Buch Dampfturbine,Other | Steam Turbine,DE,50Hertz,52.63472800000001,13.509710000000002,5.0,0.0,50Hertz,B130,Other,1,0,0,0,55.0,0.25,0.85,0.9,0.08,0.05,0.4,0.4,1,4,4,5.0,0.04,0.04,0.05
19,Dobern Vb Solar Ba,Solar | PP,DE,50Hertz,55.603365,14.606946,1.9,0.0,50Hertz,B15,SolarPV,0,1,1,0,2.0,0.0,0.15,1.0,0.03,0.0,1.0,1.0,0,0,0,0.0,0.0,0.0,0.0
20,Arkona Becken Sud Ost,Wind | Offshore,DE,50Hertz,54.80850755105719,14.094158288384385,737.8000000000001,0.0,50Hertz,B15,WindOff,0,1,1,0,4.0,0.0,0.25,1.0,0.05,0.0,1.0,1.0,0,0,0,0.0,0.0,0.0,0.0
21,Bhkw Blankenburger Strasse Motormodul,Biogas | Combustion Engine,DE,50Hertz,52.586558,13.425281,1.2,0.0,50Hertz,B155,Bio,1,1,0,0,39.0,0.1,0.9,0.9,0.08,0.06,0.4,0.4,1,6,6,6.0,0.05,0.05,0.06
22,Agenitor Eg,Natural Gas | Combustion Engine,DE,50Hertz,52.58284012264151,13.427055915094341,0.636,0.0,50Hertz,B155,NGCT,1,0,0,0,68.0,0.58,0.86,1.0,0.08,0.12,1.0,1.0,1,1,1,8.0,0.08,0.08,0.1
23,Berlin Pva Uberschuss,Solar | PP,DE,50Hertz,52.573847992215164,13.47002384380101,3.9821,0.0,50Hertz,B155,SolarPV,0,1,1,0,2.0,0.0,0.15,1.0,0.03,0.0,1.0,1.0,0,0,0,0.0,0.0,0.0,0.0
24,Bga Mahlwinkel,Biogas | Combustion Engine,DE,50Hertz,52.46085128545552,11.85385507469366,9.385,0.0,50Hertz,B158,Bio,1,1,0,0,39.0,0.1,0.9,0.9,0.08,0.06,0.4,0.4,1,6,6,6.0,0.05,0.05,0.06
25,Bhkw Tangermunde Md,Natural Gas | Combustion Engine,DE,50Hertz,52.55280882474228,11.97756262886598,0.97,0.0,50Hertz,B158,NGCT,1,0,0,0,68.0,0.58,0.86,1.0,0.08,0.12,1.0,1.0,1,1,1,8.0,0.08,0.08,0.1
26,Agrar Zerben,Solar | PP,DE,50Hertz,52.44902261694413,11.853017377029522,120.761377,0.0,50Hertz,B158,SolarPV,0,1,1,0,2.0,0.0,0.15,1.0,0.03,0.0,1.0,1.0,0,0,0,0.0,0.0,0.0,0.0
27,Ferchland,Wind | Onshore,DE,50Hertz,52.4800951652452,11.908501605010661,422.09999999999997,0.0,50Hertz,B158,WindOn,0,1,1,0,3.0,0.0,0.18,1.0,0.05,0.0,1.0,1.0,0,0,0,0.0,0.0,0.0,0.0
28,Bga Neukirchen Bhkw,Biogas | Combustion Engine,DE,50Hertz,52.909792796284826,11.854439134365323,1.6150000000000002,0.0,50Hertz,B159,Bio,1,1,0,0,39.0,0.1,0.9,0.9,0.08,0.06,0.4,0.4,1,6,6,6.0,0.05,0.05,0.06
29,Dachanlage Industriestrasse Perleberg,Solar | PP,DE,50Hertz,52.973433350298826,11.859826082558252,4.764769,0.0,50Hertz,B159,SolarPV,0,1,1,0,2.0,0.0,0.15,1.0,0.03,0.0,1.0,1.0,0,0,0,0.0,0.0,0.0,0.0
30,Alternativ Energie Priborn,Biogas | Combustion Engine,DE,50Hertz,53.60391580231904,12.649540241244955,21.302,0.0,50Hertz,B16,Bio,1,1,0,0,39.0,0.1,0.9,0.9,0.08,0.06,0.4,0.4,1,6,6,6.0,0.05,0.05,0.06
31,Bmhkw Malchin Dt,Waste | Steam Turbine,DE,50Hertz,53.74153,12.78257,10.626,0.0,50Hertz,B16,MSW,1,1,0,0,32.0,0.08,0.9,0.92,0.08,0.06,0.35,0.35,1,6,6,5.0,0.05,0.05,0.06
32,Anlage,Natural Gas | Combustion Engine,DE,50Hertz,53.59761952597602,12.478049090070703,3.253,0.0,50Hertz,B16,NGCT,1,0,0,0,68.0,0.58,0.86,1.0,0.08,0.12,1.0,1.0,1,1,1,8.0,0.08,0.08,0.1
33,Bhkw Ol Reha Klinik,Oil | Combustion Engine,DE,50Hertz,53.479562,12.43293,0.125,0.0,50Hertz,B16,Oil,1,0,0,0,110.0,0.82,0.88,1.0,0.1,0.08,1.0,1.0,1,1,1,10.0,0.06,0.06,0.08
34,Abr,Solar | PP,DE,50Hertz,53.5280256021192,12.544594884342308,339.697346,0.0,50Hertz,B16,SolarPV,0,1,1,0,2.0,0.0,0.15,1.0,0.03,0.0,1.0,1.0,0,0,0,0.0,0.0,0.0,0.0
35,Wea Malchow,Wind | Onshore,DE,50Hertz,53.56245446473779,12.402106528028932,11.06,0.0,50Hertz,B16,WindOn,0,1,1,0,3.0,0.0,0.18,1.0,0.05,0.0,1.0,1.0,0,0,0,0.0,0.0,0.0,0.0
36,Aev Bhkw,Biogas | Combustion Engine,DE,50Hertz,52.731833642073376,12.7261835607498,17.498,0.0,50Hertz,B161,Bio,1,1,0,0,39.0,0.1,0.9,0.9,0.08,0.06,0.4,0.4,1,6,6,6.0,0.05,0.05,0.06
37,Bhkw Viessmann,Natural Gas | Combustion Engine,DE,50Hertz,52.6391315,12.901597,0.28,0.0,50Hertz,B161,NGCT,1,0,0,0,68.0,0.58,0.86,1.0,0.08,0.12,1.0,1.0,1,1,1,8.0,0.08,0.08,0.1
38,Marelli,Oil | Combustion Engine,DE,50Hertz,52.771403461538455,12.825751692307692,1.04,0.0,50Hertz,B161,Oil,1,0,0,0,110.0,0.82,0.88,1.0,0.1,0.08,1.0,1.0,1,1,1,10.0,0.06,0.06,0.08
39,Agrar Gmbh Fehrbellin,Solar | PP,DE,50Hertz,52.71421367326676,12.756747621723122,143.84765,0.0,50Hertz,B161,SolarPV,0,1,1,0,2.0,0.0,0.15,1.0,0.03,0.0,1.0,1.0,0,0,0,0.0,0.0,0.0,0.0
40,Bechlin,Wind | Onshore,DE,50Hertz,52.71368672287949,12.708319139963907,249.35,0.0,50Hertz,B161,WindOn,0,1,1,0,3.0,0.0,0.18,1.0,0.05,0.0,1.0,1.0,0,0,0,0.0,0.0,0.0,0.0
41,Bga Eichstadt,Biogas | Combustion Engine,DE,50Hertz,52.725755248983866,13.091480353122307,16.238,0.0,50Hertz,B165,Bio,1,1,0,0,39.0,0.1,0.9,0.9,0.08,0.06,0.4,0.4,1,6,6,6.0,0.05,0.05,0.06
42,Bhkw,Natural Gas | Combustion Engine,DE,50Hertz,52.74438442418061,13.233156671834626,7.353,0.0,50Hertz,B165,NGCT,1,0,0,0,68.0,0.58,0.86,1.0,0.08,0.12,1.0,1.0,1,1,1,8.0,0.08,0.08,0.1
43,Nea Borgsdorf,Oil | Combustion Engine,DE,50Hertz,52.7560029497717,13.137615593607306,2.19,0.0,50Hertz,B165,Oil,1,0,0,0,110.0,0.82,0.88,1.0,0.1,0.08,1.0,1.0,1,1,1,10.0,0.06,0.06,0.08
44,Abr,Solar | PP,DE,50Hertz,52.751071116366795,13.252371841906681,88.636764,0.0,50Hertz,B165,SolarPV,0,1,1,0,2.0,0.0,0.15,1.0,0.03,0.0,1.0,1.0,0,0,0,0.0,0.0,0.0,0.0
45,Neusustrum,Wind | Onshore,DE,50Hertz,52.74072746938775,13.22186744897959,9.8,0.0,50Hertz,B165,WindOn,0,1,1,0,3.0,0.0,0.18,1.0,0.05,0.0,1.0,1.0,0,0,0,0.0,0.0,0.0,0.0
46,Bga Krempin,Biogas | Combustion Engine,DE,50Hertz,54.09695967775811,11.931856352566372,8.475,0.0,50Hertz,B17,Bio,1,1,0,0,39.0,0.1,0.9,0.9,0.08,0.06,0.4,0.4,1,6,6,6.0,0.05,0.05,0.06
47,Kng Rostock,Hard Coal | Steam Turbine,DE,50Hertz,54.14065,12.13102,514.0,0.0,50Hertz,B17,Coal,1,0,0,0,36.0,0.95,0.9,0.92,0.08,0.08,0.25,0.25,1,8,8,9.0,0.04,0.04,0.05
48,Ebs Rostock,Waste | Steam Turbine,DE,50Hertz,54.144615,12.143755,18.5,0.0,50Hertz,B17,MSW,1,1,0,0,32.0,0.08,0.9,0.92,0.08,0.06,0.35,0.35,1,6,6,5.0,0.05,0.05,0.06
49,Rostock Marienehe,Natural Gas | CCGT,DE,50Hertz,54.1256,12.083541000000002,108.0,0.0,50Hertz,B17,NGCC,1,0,0,0,42.0,0.4,0.92,1.0,0.06,0.1,0.5,0.5,1,4,4,6.0,0.05,0.05,0.075
50,Bhkw,Natural Gas | Combustion Engine,DE,50Hertz,54.137968,12.169502,0.372,0.0,50Hertz,B17,NGCT,1,0,0,0,68.0,0.58,0.86,1.0,0.08,0.12,1.0,1.0,1,1,1,8.0,0.08,0.08,0.1
51,Pasm Nea Kritzmow Biestower Weg,Oil | Combustion Engine,DE,50Hertz,54.055597,12.057258,0.72,0.0,50Hertz,B17,Oil,1,0,0,0,110.0,0.82,0.88,1.0,0.1,0.08,1.0,1.0,1,1,1,10.0,0.06,0.06,0.08
52,Abr,Solar | PP,DE,50Hertz,54.053727471531616,11.861826413505668,70.373374,0.0,50Hertz,B17,SolarPV,0,1,1,0,2.0,0.0,0.15,1.0,0.03,0.0,1.0,1.0,0,0,0,0.0,0.0,0.0,0.0
53,Admannshagen,Wind | Onshore,DE,50Hertz,54.0204206529838,11.809492387489207,382.23,0.0,50Hertz,B17,WindOn,0,1,1,0,3.0,0.0,0.18,1.0,0.05,0.0,1.0,1.0,0,0,0,0.0,0.0,0.0,0.0
54,Be Viesecke Naturstrom Ug Co Kg,Biogas | Combustion Engine,DE,50Hertz,52.93352549140401,12.193372856415154,18.846,0.0,50Hertz,B178,Bio,1,1,0,0,39.0,0.1,0.9,0.9,0.08,0.06,0.4,0.4,1,6,6,6.0,0.05,0.05,0.06
55,Biogasanlage Milchviehanlage,Waste | Combustion Engine,DE,50Hertz,52.925715,12.244035,0.365,0.0,50Hertz,B178,MSW,1,1,0,0,32.0,0.08,0.9,0.92,0.08,0.06,0.35,0.35,1,6,6,5.0,0.05,0.05,0.06
56,Kwk Anlage,Natural Gas | CCGT,DE,50Hertz,52.94800000000001,12.397,4.875,0.0,50Hertz,B178,NGCC,1,0,0,0,42.0,0.4,0.92,1.0,0.06,0.1,0.5,0.5,1,4,4,6.0,0.05,0.05,0.075
57,Agenitor,Natural Gas | Combustion Engine,DE,50Hertz,52.96290603351955,12.178264039106145,0.895,0.0,50Hertz,B178,NGCT,1,0,0,0,68.0,0.58,0.86,1.0,0.08,0.12,1.0,1.0,1,1,1,8.0,0.08,0.08,0.1
58,Agravis Ost Kyritz,Solar | PP,DE,50Hertz,52.944765020492994,12.263069014461967,345.548619,0.0,50Hertz,B178,SolarPV,0,1,1,0,2.0,0.0,0.15,1.0,0.03,0.0,1.0,1.0,0,0,0,0.0,0.0,0.0,0.0
59,Askov Overgaard,Wind | Onshore,DE,50Hertz,52.993558225801124,12.222605798518462,787.02,0.0,50Hertz,B178,WindOn,0,1,1,0,3.0,0.0,0.18,1.0,0.05,0.0,1.0,1.0,0,0,0,0.0,0.0,0.0,0.0
60,Bhkw,Biogas | Combustion Engine,DE,50Hertz,53.10764292692101,11.907291095647501,1.861,0.0,50Hertz,B179,Bio,1,1,0,0,39.0,0.1,0.9,0.9,0.08,0.06,0.4,0.4,1,6,6,6.0,0.05,0.05,0.06
61,Baek Freiland Gross,Solar | PP,DE,50Hertz,53.16313018302018,11.92022184881698,1.1496,0.0,50Hertz,B179,SolarPV,0,1,1,0,2.0,0.0,0.15,1.0,0.03,0.0,1.0,1.0,0,0,0,0.0,0.0,0.0,0.0
62,Bhkw Schonerlinde,Biogas | Combustion Engine,DE,50Hertz,52.661373000000005,13.428381,0.4,0.0,50Hertz,B186,Bio,1,1,0,0,39.0,0.1,0.9,0.9,0.08,0.06,0.4,0.4,1,6,6,6.0,0.05,0.05,0.06
63,Bhkw,Natural Gas | Combustion Engine,DE,50Hertz,52.63647142821782,13.417096232178217,2.02,0.0,50Hertz,B186,NGCT,1,0,0,0,68.0,0.58,0.86,1.0,0.08,0.12,1.0,1.0,1,1,1,8.0,0.08,0.08,0.1
64,Berlin,Oil | Combustion Engine,DE,50Hertz,52.635236,13.435507999999999,1.33,0.0,50Hertz,B186,Oil,1,0,0,0,110.0,0.82,0.88,1.0,0.1,0.08,1.0,1.0,1,1,1,10.0,0.06,0.06,0.08
65,Berlin,Solar | PP,DE,50Hertz,52.63272972197665,13.382058170522827,5.7916,0.0,50Hertz,B186,SolarPV,0,1,1,0,2.0,0.0,0.15,1.0,0.03,0.0,1.0,1.0,0,0,0,0.0,0.0,0.0,0.0
66,Berlin Pankow,Wind | Onshore,DE,50Hertz,52.64645806907281,13.430870417548228,16.07,0.0,50Hertz,B186,WindOn,0,1,1,0,3.0,0.0,0.18,1.0,0.05,0.0,1.0,1.0,0,0,0,0.0,0.0,0.0,0.0
67,Biogasanlage Klosterfelde,Biogas | Combustion Engine,DE,50Hertz,52.803687999999994,13.465195000000001,0.36,0.0,50Hertz,B187,Bio,1,1,0,0,39.0,0.1,0.9,0.9,0.08,0.06,0.4,0.4,1,6,6,6.0,0.05,0.05,0.06
68,Bhkw Basdorf,Natural Gas | Combustion Engine,DE,50Hertz,52.75249785957723,13.487891784557958,2.4647,0.0,50Hertz,B187,NGCT,1,0,0,0,68.0,0.58,0.86,1.0,0.08,0.12,1.0,1.0,1,1,1,8.0,0.08,0.08,0.1
69,Kiesweg,Solar | PP,DE,50Hertz,52.78204487723234,13.490796596920317,8.173570000000002,0.0,50Hertz,B187,SolarPV,0,1,1,0,2.0,0.0,0.15,1.0,0.03,0.0,1.0,1.0,0,0,0,0.0,0.0,0.0,0.0
70,Klosterfelde,Wind | Onshore,DE,50Hertz,52.77441460864704,13.449700542303393,26.83,0.0,50Hertz,B187,WindOn,0,1,1,0,3.0,0.0,0.18,1.0,0.05,0.0,1.0,1.0,0,0,0,0.0,0.0,0.0,0.0
71,Gtkw Ahrensfelde,Natural Gas | CCGT,DE,50Hertz,52.580922,13.570582,148.416,0.0,50Hertz,B193,NGCC,1,0,0,0,42.0,0.4,0.92,1.0,0.06,0.1,0.5,0.5,1,4,4,6.0,0.05,0.05,0.075
72,Bhk,Natural Gas | Combustion Engine,DE,50Hertz,52.599916,13.549843,4.7,0.0,50Hertz,B193,NGCT,1,0,0,0,68.0,0.58,0.86,1.0,0.08,0.12,1.0,1.0,1,1,1,8.0,0.08,0.08,0.1
73,Pva Grundschule Ahrensfelde Ot Lindenberg,Solar | PP,DE,50Hertz,52.603741288343564,13.545356061349693,0.489,0.0,50Hertz,B193,SolarPV,0,1,1,0,2.0,0.0,0.15,1.0,0.03,0.0,1.0,1.0,0,0,0,0.0,0.0,0.0,0.0
74,Lindenberg,Wind | Onshore,DE,50Hertz,52.612162950438204,13.537142374735572,33.089999999999996,0.0,50Hertz,B193,WindOn,0,1,1,0,3.0,0.0,0.18,1.0,0.05,0.0,1.0,1.0,0,0,0,0.0,0.0,0.0,0.0
75,Bga Reinstaedt,Biogas | Combustion Engine,DE,50Hertz,50.87523837541528,11.45745431561462,1.505,0.0,50Hertz,B201,Bio,1,1,0,0,39.0,0.1,0.9,0.9,0.08,0.06,0.4,0.4,1,6,6,6.0,0.05,0.05,0.06
76,Wasserkraftanlage Ilm Bad Berka,Hydro | Run-Of-River,DE,50Hertz,50.883436,11.265584,0.155,0.0,50Hertz,B201,Hydro,0,1,0,0,7.5,0.0,0.7,0.65,0.04,0.0,1.0,1.0,0,0,0,0.0,0.0,0.0,0.0
77,Bhkw,Natural Gas | Combustion Engine,DE,50Hertz,50.91460734272723,11.300897993285043,3.7826,0.0,50Hertz,B201,NGCT,1,0,0,0,68.0,0.58,0.86,1.0,0.08,0.12,1.0,1.0,1,1,1,8.0,0.08,0.08,0.1
78,Bad Berka,Solar | PP,DE,50Hertz,50.86642077747205,11.37930032065309,28.365515,0.0,50Hertz,B201,SolarPV,0,1,1,0,2.0,0.0,0.15,1.0,0.03,0.0,1.0,1.0,0,0,0,0.0,0.0,0.0,0.0
79,Rittersdorf,Wind | Onshore,DE,50Hertz,50.84785972431916,11.334024403726707,104.65,0.0,50Hertz,B201,WindOn,0,1,1,0,3.0,0.0,0.18,1.0,0.05,0.0,1.0,1.0,0,0,0,0.0,0.0,0.0,0.0
80,Bhkw,Biogas | Combustion Engine,DE,50Hertz,50.69264482261411,12.908719922199172,3.856,0.0,50Hertz,B228,Bio,1,1,0,0,39.0,0.1,0.9,0.9,0.08,0.06,0.4,0.4,1,6,6,6.0,0.05,0.05,0.06
81,Abr,Hydro | Run-Of-River,DE,50Hertz,50.66392296087638,13.058300870109546,3.195,0.0,50Hertz,B228,Hydro,0,1,0,0,7.5,0.0,0.7,0.65,0.04,0.0,1.0,1.0,0,0,0,0.0,0.0,0.0,0.0
82,Bhkw,Waste | Combustion Engine,DE,50Hertz,50.662295,12.839139,0.103,0.0,50Hertz,B228,MSW,1,1,0,0,32.0,0.08,0.9,0.92,0.08,0.06,0.35,0.35,1,6,6,5.0,0.05,0.05,0.06
83,Bhkw,Natural Gas | Combustion Engine,DE,50Hertz,50.67054964705882,12.996389420466409,2.873,0.0,50Hertz,B228,NGCT,1,0,0,0,68.0,0.58,0.86,1.0,0.08,0.12,1.0,1.0,1,1,1,8.0,0.08,0.08,0.1
84,Nea,Oil | Combustion Engine,DE,50Hertz,50.618934,13.044262,0.16,0.0,50Hertz,B228,Oil,1,0,0,0,110.0,0.82,0.88,1.0,0.1,0.08,1.0,1.0,1,1,1,10.0,0.06,0.06,0.08
85,Anlage,Solar | PP,DE,50Hertz,50.69230301529739,12.906506987807798,30.32348,0.0,50Hertz,B228,SolarPV,0,1,1,0,2.0,0.0,0.15,1.0,0.03,0.0,1.0,1.0,0,0,0,0.0,0.0,0.0,0.0
86,Drebach,Wind | Onshore,DE,50Hertz,50.66117835569423,13.045599201248052,32.05,0.0,50Hertz,B228,WindOn,0,1,1,0,3.0,0.0,0.18,1.0,0.05,0.0,1.0,1.0,0,0,0,0.0,0.0,0.0,0.0
87,Bga Frohburg,Biogas | Combustion Engine,DE,50Hertz,51.026240260642474,12.597857247469378,21.635,0.0,50Hertz,B23,Bio,1,1,0,0,39.0,0.1,0.9,0.9,0.08,0.06,0.4,0.4,1,6,6,6.0,0.05,0.05,0.06
88,Turbine Rochlitz,Hydro | Run-Of-River,DE,50Hertz,51.13213370689655,12.861555000000001,3.48,0.0,50Hertz,B23,Hydro,0,1,0,0,7.5,0.0,0.7,0.65,0.04,0.0,1.0,1.0,0,0,0,0.0,0.0,0.0,0.0
89,Bhkw,Natural Gas | Combustion Engine,DE,50Hertz,51.01709110606833,12.496163950535442,5.883,0.0,50Hertz,B23,NGCT,1,0,0,0,68.0,0.58,0.86,1.0,0.08,0.12,1.0,1.0,1,1,1,8.0,0.08,0.08,0.1
90,Generator,Oil | Combustion Engine,DE,50Hertz,51.144421997691424,12.752521223162756,20.792,0.0,50Hertz,B23,Oil,1,0,0,0,110.0,0.82,0.88,1.0,0.1,0.08,1.0,1.0,1,1,1,10.0,0.06,0.06,0.08
91,Agar Konigsfeld Volleinspeisung,Solar | PP,DE,50Hertz,51.05036231896295,12.582635304296462,137.16377,0.0,50Hertz,B23,SolarPV,0,1,1,0,2.0,0.0,0.15,1.0,0.03,0.0,1.0,1.0,0,0,0,0.0,0.0,0.0,0.0
92,Bockwitz,Wind | Onshore,DE,50Hertz,51.06364310898301,12.592693721675209,74.14,0.0,50Hertz,B23,WindOn,0,1,1,0,3.0,0.0,0.18,1.0,0.05,0.0,1.0,1.0,0,0,0,0.0,0.0,0.0,0.0
93,Bhkw Geb,Natural Gas | Combustion Engine,DE,50Hertz,52.627387,13.501628,1.054,0.0,50Hertz,B233,NGCT,1,0,0,0,68.0,0.58,0.86,1.0,0.08,0.12,1.0,1.0,1,1,1,8.0,0.08,0.08,0.1
94,Bga,Biogas | Combustion Engine,DE,50Hertz,51.30597413060685,14.785674637906771,11.370000000000001,0.0,50Hertz,B24,Bio,1,1,0,0,39.0,0.1,0.9,0.9,0.08,0.06,0.4,0.4,1,6,6,6.0,0.05,0.05,0.06
95,Boxberg,Lignite | Steam Turbine,DE,50Hertz,51.41333425,14.563203,2470.0,0.0,50Hertz,B24,Coal,1,0,0,0,36.0,0.95,0.9,0.92,0.08,0.08,0.25,0.25,1,8,8,9.0,0.04,0.04,0.05
96,Boxberg,Hydro | Run-Of-River,DE,50Hertz,51.429833722196996,14.858880801634134,2.2030000000000003,0.0,50Hertz,B24,Hydro,0,1,0,0,7.5,0.0,0.7,0.65,0.04,0.0,1.0,1.0,0,0,0,0.0,0.0,0.0,0.0
97,Dampfturbine,Waste | Steam Turbine,DE,50Hertz,51.410306,14.950889,0.945,0.0,50Hertz,B24,MSW,1,1,0,0,32.0,0.08,0.9,0.92,0.08,0.06,0.35,0.35,1,6,6,5.0,0.05,0.05,0.06
98,Bhkw,Natural Gas | Combustion Engine,DE,50Hertz,51.417297314049584,14.757202212121214,1.089,0.0,50Hertz,B24,NGCT,1,0,0,0,68.0,0.58,0.86,1.0,0.08,0.12,1.0,1.0,1,1,1,8.0,0.08,0.08,0.1
99,Notstromaggregat,Oil | Combustion Engine,DE,50Hertz,51.410306,14.950889,0.56,0.0,50Hertz,B24,Oil,1,0,0,0,110.0,0.82,0.88,1.0,0.1,0.08,1.0,1.0,1,1,1,10.0,0.06,0.06,0.08
100,Agrar Daubitz,Solar | PP,DE,50Hertz,51.38877347617155,14.78652430587241,109.94330599999999,0.0,50Hertz,B24,SolarPV,0,1,1,0,2.0,0.0,0.15,1.0,0.03,0.0,1.0,1.0,0,0,0,0.0,0.0,0.0,0.0
101,Wka Weisskeissel,Wind | Onshore,DE,50Hertz,51.4963565,14.732934,1.2,0.0,50Hertz,B24,WindOn,0,1,1,0,3.0,0.0,0.18,1.0,0.05,0.0,1.0,1.0,0,0,0,0.0,0.0,0.0,0.0
102,Bhkw Albertshof,Biogas | Combustion Engine,DE,50Hertz,52.669896186833476,13.587563589622643,4.8759999999999994,0.0,50Hertz,B242,Bio,1,1,0,0,39.0,0.1,0.9,0.9,0.08,0.06,0.4,0.4,1,6,6,6.0,0.05,0.05,0.06
103,Bhkw Turbine,Natural Gas | Steam Turbine,DE,50Hertz,52.683236,13.615698,1.681,0.0,50Hertz,B242,NGCC,1,0,0,0,42.0,0.4,0.92,1.0,0.06,0.1,0.5,0.5,1,4,4,6.0,0.05,0.05,0.075
104,Bhkw Anlage,Natural Gas | Combustion Engine,DE,50Hertz,52.71635992253931,13.624516384100174,6.868,0.0,50Hertz,B242,NGCT,1,0,0,0,68.0,0.58,0.86,1.0,0.08,0.12,1.0,1.0,1,1,1,8.0,0.08,0.08,0.1
105,Anlage Gds,Solar | PP,DE,50Hertz,52.810671709323124,13.698710392897915,95.2847,0.0,50Hertz,B242,SolarPV,0,1,1,0,2.0,0.0,0.15,1.0,0.03,0.0,1.0,1.0,0,0,0,0.0,0.0,0.0,0.0
106,Birkholz,Wind | Onshore,DE,50Hertz,52.72570636828037,13.659624869871442,117.845,0.0,50Hertz,B242,WindOn,0,1,1,0,3.0,0.0,0.18,1.0,0.05,0.0,1.0,1.0,0,0,0,0.0,0.0,0.0,0.0
107,De Sassnitz,Solar | PP,DE,50Hertz,54.511619,13.619064,0.1,0.0,50Hertz,B256,SolarPV,0,1,1,0,2.0,0.0,0.15,1.0,0.03,0.0,1.0,1.0,0,0,0,0.0,0.0,0.0,0.0
108,Baltic Eagle,Wind | Offshore,DE,50Hertz,54.82655365714286,13.876257942857142,333.375,0.0,50Hertz,B256,WindOff,0,1,1,0,4.0,0.0,0.25,1.0,0.05,0.0,1.0,1.0,0,0,0,0.0,0.0,0.0,0.0
109,Jms Gs,Biogas | Combustion Engine,DE,50Hertz,54.51434256485788,13.552258823255814,1.935,0.0,50Hertz,B257,Bio,1,1,0,0,39.0,0.1,0.9,0.9,0.08,0.06,0.4,0.4,1,6,6,6.0,0.05,0.05,0.06
110,Bhkw Precise Resort Rugen,Natural Gas | Combustion Engine,DE,50Hertz,54.55114900000001,13.568099,0.4294,0.0,50Hertz,B257,NGCT,1,0,0,0,68.0,0.58,0.86,1.0,0.08,0.12,1.0,1.0,1,1,1,8.0,0.08,0.08,0.1
111,Mka,Oil | Combustion Engine,DE,50Hertz,54.817277,13.67715,0.3,0.0,50Hertz,B257,Oil,1,0,0,0,110.0,0.82,0.88,1.0,0.1,0.08,1.0,1.0,1,1,1,10.0,0.06,0.06,0.08
112,Dach,Solar | PP,DE,50Hertz,54.56048990247695,13.471794061894618,10.850071,0.0,50Hertz,B257,SolarPV,0,1,1,0,2.0,0.0,0.15,1.0,0.03,0.0,1.0,1.0,0,0,0,0.0,0.0,0.0,0.0
113,Arcadis Ost,Wind | Offshore,DE,50Hertz,54.89302743833013,13.476541308434763,702.45,0.0,50Hertz,B257,WindOff,0,1,1,0,4.0,0.0,0.25,1.0,0.05,0.0,1.0,1.0,0,0,0,0.0,0.0,0.0,0.0
114,Altenkirchen,Wind | Onshore,DE,50Hertz,54.6036969448819,13.310698141732283,6.35,0.0,50Hertz,B257,WindOn,0,1,1,0,3.0,0.0,0.18,1.0,0.05,0.0,1.0,1.0,0,0,0,0.0,0.0,0.0,0.0
115,Pv Feld,Solar | PV,DE,50Hertz,54.802521145423434,9.34062576817793,6.13725,0.0,50Hertz,B259,SolarPV,0,1,1,0,2.0,0.0,0.15,1.0,0.03,0.0,1.0,1.0,0,0,0,0.0,0.0,0.0,0.0
116,Lee Muhlenweg,Wind | Onshore,DE,50Hertz,54.801969,9.349859,0.5,0.0,50Hertz,B259,WindOn,0,1,1,0,3.0,0.0,0.18,1.0,0.05,0.0,1.0,1.0,0,0,0,0.0,0.0,0.0,0.0
117,Bhkw,Biogas | Combustion Engine,DE,50Hertz,54.783545343511456,9.3257793129771,0.655,0.0,50Hertz,B260,Bio,1,1,0,0,39.0,0.1,0.9,0.9,0.08,0.06,0.4,0.4,1,6,6,6.0,0.05,0.05,0.06
118,Dachflache,Solar | PP,DE,50Hertz,54.777330957752916,9.345718677623422,4.76601,0.0,50Hertz,B260,SolarPV,0,1,1,0,2.0,0.0,0.15,1.0,0.03,0.0,1.0,1.0,0,0,0,0.0,0.0,0.0,0.0
119,Bw Wallsbull,Wind | Onshore,DE,50Hertz,54.79583125,9.2529585,22.8,0.0,50Hertz,B260,WindOn,0,1,1,0,3.0,0.0,0.18,1.0,0.05,0.0,1.0,1.0,0,0,0,0.0,0.0,0.0,0.0
120,Bga,Biogas | Combustion Engine,DE,50Hertz,52.68659713130768,11.334077810533424,22.215,0.0,50Hertz,B271,Bio,1,1,0,0,39.0,0.1,0.9,0.9,0.08,0.06,0.4,0.4,1,6,6,6.0,0.05,0.05,0.06
121,Bhkw,Natural Gas | CHP,DE,50Hertz,52.82825788636364,11.104366818181818,8.799999999999999,0.0,50Hertz,B271,NGCC,1,0,0,0,42.0,0.4,0.92,1.0,0.06,0.1,0.5,0.5,1,4,4,6.0,0.05,0.05,0.075
122,Bhkw,Natural Gas | Combustion Engine,DE,50Hertz,52.81817815113707,11.200414089715753,19.989800000000002,0.0,50Hertz,B271,NGCT,1,0,0,0,68.0,0.58,0.86,1.0,0.08,0.12,1.0,1.0,1,1,1,8.0,0.08,0.08,0.1
123,Kh Gardelegen Netzersatz Bl,Oil | Combustion Engine,DE,50Hertz,52.68643558282209,11.265680981595091,0.8150000000000001,0.0,50Hertz,B271,Oil,1,0,0,0,110.0,0.82,0.88,1.0,0.1,0.08,1.0,1.0,1,1,1,10.0,0.06,0.06,0.08
124,Abr Erstem Cokg,Solar | PP,DE,50Hertz,52.66996939033225,11.337694706217981,153.50114,0.0,50Hertz,B271,SolarPV,0,1,1,0,2.0,0.0,0.15,1.0,0.03,0.0,1.0,1.0,0,0,0,0.0,0.0,0.0,0.0
125,Alte Dorfstr Bismark Garlipp Wka,Wind | Onshore,DE,50Hertz,52.674907781759536,11.410326001602245,477.455,0.0,50Hertz,B271,WindOn,0,1,1,0,3.0,0.0,0.18,1.0,0.05,0.0,1.0,1.0,0,0,0,0.0,0.0,0.0,0.0
126,Bga Finsterwalde Deutz,Biogas | Combustion Engine,DE,50Hertz,51.591084303236286,13.895990249974638,19.714,0.0,50Hertz,B277,Bio,1,1,0,0,39.0,0.1,0.9,0.9,0.08,0.06,0.4,0.4,1,6,6,6.0,0.05,0.05,0.06
127,Hypos Several Projects,Hydrogen Storage | Store,DE,50Hertz,51.55,14.02,1.3,0.0,50Hertz,B277,Hydro,0,1,0,0,7.5,0.0,0.7,0.65,0.04,0.0,1.0,1.0,0,0,0,0.0,0.0,0.0,0.0
128,Bga Peickwitz,Waste | Combustion Engine,DE,50Hertz,51.58075854455446,13.979102999999999,25.25,0.0,50Hertz,B277,MSW,1,1,0,0,32.0,0.08,0.9,0.92,0.08,0.06,0.35,0.35,1,6,6,5.0,0.05,0.05,0.06
129,Brandenburg Havel,Natural Gas | Steam Turbine,DE,50Hertz,51.48555644580902,13.90722180114341,165.295,0.0,50Hertz,B277,NGCC,1,0,0,0,42.0,0.4,0.92,1.0,0.06,0.1,0.5,0.5,1,4,4,6.0,0.05,0.05,0.075
130,Bga Finsterwalde Eigenstromversorgung,Natural Gas | Combustion Engine,DE,50Hertz,51.53856588772082,13.77180586392174,6.849,0.0,50Hertz,B277,NGCT,1,0,0,0,68.0,0.58,0.86,1.0,0.08,0.12,1.0,1.0,1,1,1,8.0,0.08,0.08,0.1
131,Netzersatzanlage Eew Grossraschen Gmbh,Oil | Combustion Engine,DE,50Hertz,51.581935,13.976283,1.25,0.0,50Hertz,B277,Oil,1,0,0,0,110.0,0.82,0.88,1.0,0.1,0.08,1.0,1.0,1,1,1,10.0,0.06,0.06,0.08
132,Altdobern,Solar | PP,DE,50Hertz,51.56783698757815,13.913090857091124,751.389326,0.0,50Hertz,B277,SolarPV,0,1,1,0,2.0,0.0,0.15,1.0,0.03,0.0,1.0,1.0,0,0,0,0.0,0.0,0.0,0.0
133,Betreibergemeinschaft Ressen Gbr,Wind | Onshore,DE,50Hertz,51.63560547330461,13.924794150914261,757.715,0.0,50Hertz,B277,WindOn,0,1,1,0,3.0,0.0,0.18,1.0,0.05,0.0,1.0,1.0,0,0,0,0.0,0.0,0.0,0.0
134,Bga,Biogas | Combustion Engine,DE,50Hertz,50.91180392472454,13.013536867490458,7.8458499999999995,0.0,50Hertz,B282,Bio,1,1,0,0,39.0,0.1,0.9,0.9,0.08,0.06,0.4,0.4,1,6,6,6.0,0.05,0.05,0.06
135,Chemnitz Nord,Lignite | Steam Turbine,DE,50Hertz,50.857633,12.922641,150.504,0.0,50Hertz,B282,Coal,1,0,0,0,36.0,0.95,0.9,0.92,0.08,0.08,0.25,0.25,1,8,8,9.0,0.04,0.04,0.05
136,Az,Hydro | Run-Of-River,DE,50Hertz,50.92050710900922,13.062287481082999,25.374000000000002,0.0,50Hertz,B282,Hydro,0,1,0,0,7.5,0.0,0.7,0.65,0.04,0.0,1.0,1.0,0,0,0,0.0,0.0,0.0,0.0
137,Gasturbine,Natural Gas | CCGT,DE,50Hertz,50.84408227416684,12.924855259007709,161.223,0.0,50Hertz,B282,NGCC,1,0,0,0,42.0,0.4,0.92,1.0,0.06,0.1,0.5,0.5,1,4,4,6.0,0.05,0.05,0.075
138,Bhkw,Natural Gas | Combustion Engine,DE,50Hertz,50.88558966270515,13.042300522354273,1.767,0.0,50Hertz,B282,NGCT,1,0,0,0,68.0,0.58,0.86,1.0,0.08,0.12,1.0,1.0,1,1,1,8.0,0.08,0.08,0.1
139,Nea Jva Chemnitz,Oil | Combustion Engine,DE,50Hertz,50.83845292242573,12.925250509773742,1.2994,0.0,50Hertz,B282,Oil,1,0,0,0,110.0,0.82,0.88,1.0,0.1,0.08,1.0,1.0,1,1,1,10.0,0.06,0.06,0.08
140,Bhkw Frankenberg,Other | Combustion Engine,DE,50Hertz,51.02447011222781,13.023015172529313,4.179,0.0,50Hertz,B282,Other,1,0,0,0,55.0,0.25,0.85,0.9,0.08,0.05,0.4,0.4,1,4,4,5.0,0.04,0.04,0.05
141,Abr,Solar | PP,DE,50Hertz,50.89046996749951,12.998834733407556,86.949584,0.0,50Hertz,B282,SolarPV,0,1,1,0,2.0,0.0,0.15,1.0,0.03,0.0,1.0,1.0,0,0,0,0.0,0.0,0.0,0.0
142,Ehrenberg,Wind | Onshore,DE,50Hertz,50.9730225911147,13.002303015347335,61.9,0.0,50Hertz,B282,WindOn,0,1,1,0,3.0,0.0,0.18,1.0,0.05,0.0,1.0,1.0,0,0,0,0.0,0.0,0.0,0.0
143,Bga Baumgarten Bhkw,Biogas | Combustion Engine,DE,50Hertz,53.819353569941946,12.012120001250558,22.39,0.0,50Hertz,B288,Bio,1,1,0,0,39.0,0.1,0.9,0.9,0.08,0.06,0.4,0.4,1,6,6,6.0,0.05,0.05,0.06
144,Bhkw,Natural Gas | Combustion Engine,DE,50Hertz,53.82276855810834,12.111608361452346,7.5299000000000005,0.0,50Hertz,B288,NGCT,1,0,0,0,68.0,0.58,0.86,1.0,0.08,0.12,1.0,1.0,1,1,1,8.0,0.08,0.08,0.1
145,Bhkw Nord Nordstrom,Oil | Combustion Engine,DE,50Hertz,53.8145963597413,12.134435801131769,1.237,0.0,50Hertz,B288,Oil,1,0,0,0,110.0,0.82,0.88,1.0,0.1,0.08,1.0,1.0,1,1,1,10.0,0.06,0.06,0.08
146,Agrar Jurgenshagen,Solar | PP,DE,50Hertz,53.79372903461214,12.041017190391907,95.20586899999999,0.0,50Hertz,B288,SolarPV,0,1,1,0,2.0,0.0,0.15,1.0,0.03,0.0,1.0,1.0,0,0,0,0.0,0.0,0.0,0.0
147,Anlage Radegast,Wind | Onshore,DE,50Hertz,53.87736901660604,11.99535586778428,316.15,0.0,50Hertz,B288,WindOn,0,1,1,0,3.0,0.0,0.18,1.0,0.05,0.0,1.0,1.0,0,0,0,0.0,0.0,0.0,0.0
148,Bga Lalendorf Bhkw,Biogas | Combustion Engine,DE,50Hertz,53.87595448680262,12.319372077469533,16.329,0.0,50Hertz,B289,Bio,1,1,0,0,39.0,0.1,0.9,0.9,0.08,0.06,0.4,0.4,1,6,6,6.0,0.05,0.05,0.06
149,Apex Grun Bhkw,Natural Gas | Combustion Engine,DE,50Hertz,53.83091767444121,12.216794654033043,1.029,0.0,50Hertz,B289,NGCT,1,0,0,0,68.0,0.58,0.86,1.0,0.08,0.12,1.0,1.0,1,1,1,8.0,0.08,0.08,0.1
150,Abr,Solar | PP,DE,50Hertz,53.8475439509159,12.30344387709356,184.565487,0.0,50Hertz,B289,SolarPV,0,1,1,0,2.0,0.0,0.15,1.0,0.03,0.0,1.0,1.0,0,0,0,0.0,0.0,0.0,0.0
151,Appelhagen Thurkow,Wind | Onshore,DE,50Hertz,53.87239357165898,12.356660084571407,278.995,0.0,50Hertz,B289,WindOn,0,1,1,0,3.0,0.0,0.18,1.0,0.05,0.0,1.0,1.0,0,0,0,0.0,0.0,0.0,0.0
152,Alternativ Energien Gmbh Memmendorf,Biogas | Combustion Engine,DE,50Hertz,50.935356096238934,13.271852333068308,28.928,0.0,50Hertz,B290,Bio,1,1,0,0,39.0,0.1,0.9,0.9,0.08,0.06,0.4,0.4,1,6,6,6.0,0.05,0.05,0.06
153,Spilling,Lignite | Steam Turbine,DE,50Hertz,50.874977,13.397971,1.2,0.0,50Hertz,B290,Coal,1,0,0,0,36.0,0.95,0.9,0.92,0.08,0.08,0.25,0.25,1,8,8,9.0,0.04,0.04,0.05
154,Abr,Hydro | Run-Of-River,DE,50Hertz,51.046169024354654,13.16916077362514,8.91,0.0,50Hertz,B290,Hydro,0,1,0,0,7.5,0.0,0.7,0.65,0.04,0.0,1.0,1.0,0,0,0,0.0,0.0,0.0,0.0
155,Bga Mva,Waste | Combustion Engine,DE,50Hertz,50.82116879819617,13.361656343479893,2.661,0.0,50Hertz,B290,MSW,1,1,0,0,32.0,0.08,0.9,0.92,0.08,0.06,0.35,0.35,1,6,6,5.0,0.05,0.05,0.06
156,Felix Schoeller Gmbh Co Kg Weissenborn Gt,Natural Gas | CCGT,DE,50Hertz,50.879267001382004,13.380782035728801,24.602,0.0,50Hertz,B290,NGCC,1,0,0,0,42.0,0.4,0.92,1.0,0.06,0.1,0.5,0.5,1,4,4,6.0,0.05,0.05,0.075
157,Bhkw,Natural Gas | Combustion Engine,DE,50Hertz,50.965504389384996,13.280604623252737,19.149,0.0,50Hertz,B290,NGCT,1,0,0,0,68.0,0.58,0.86,1.0,0.08,0.12,1.0,1.0,1,1,1,8.0,0.08,0.08,0.1
158,Aggr,Oil | Combustion Engine,DE,50Hertz,50.93180181556373,13.351921876021242,12.24,0.0,50Hertz,B290,Oil,1,0,0,0,110.0,0.82,0.88,1.0,0.1,0.08,1.0,1.0,1,1,1,10.0,0.06,0.06,0.08
159,Abr,Other | CHP,DE,50Hertz,50.902782,13.386405333333334,0.375,0.0,50Hertz,B290,Other,1,0,0,0,55.0,0.25,0.85,0.9,0.08,0.05,0.4,0.4,1,4,4,5.0,0.04,0.04,0.05
160,Abr,Solar | PP,DE,50Hertz,50.94751457386582,13.282039847784512,240.026495,0.0,50Hertz,B290,SolarPV,0,1,1,0,2.0,0.0,0.15,1.0,0.03,0.0,1.0,1.0,0,0,0,0.0,0.0,0.0,0.0
161,Baeyerhohe,Wind | Onshore,DE,50Hertz,50.92500280187084,13.304484114240225,301.46999999999997,0.0,50Hertz,B290,WindOn,0,1,1,0,3.0,0.0,0.18,1.0,0.05,0.0,1.0,1.0,0,0,0,0.0,0.0,0.0,0.0
162,Bhkw Mar,Biogas | Combustion Engine,DE,50Hertz,53.84951292449989,10.709347297698429,4.649,0.0,50Hertz,B291,Bio,1,1,0,0,39.0,0.1,0.9,0.9,0.08,0.06,0.4,0.4,1,6,6,6.0,0.05,0.05,0.06
163,Edl Bei Der Wasserkunst,Natural Gas | CCGT,DE,50Hertz,53.839562811117425,10.708875840045378,1.763,0.0,50Hertz,B291,NGCC,1,0,0,0,42.0,0.4,0.92,1.0,0.06,0.1,0.5,0.5,1,4,4,6.0,0.05,0.05,0.075
164,Bhkw Cgs,Natural Gas | Combustion Engine,DE,50Hertz,53.84776096222338,10.697519614050021,7.637,0.0,50Hertz,B291,NGCT,1,0,0,0,68.0,0.58,0.86,1.0,0.08,0.12,1.0,1.0,1,1,1,8.0,0.08,0.08,0.1
165,De Lubeck Glashuttenweg,Solar | PP,DE,50Hertz,53.90261374784426,10.729615904117251,1.35916,0.0,50Hertz,B291,SolarPV,0,1,1,0,2.0,0.0,0.15,1.0,0.03,0.0,1.0,1.0,0,0,0,0.0,0.0,0.0,0.0
166,Am Kai Bioerdgas Bhkw,Biogas | Combustion Engine,DE,50Hertz,54.206992153854664,10.888924931202299,9.041,0.0,50Hertz,B292,Bio,1,1,0,0,39.0,0.1,0.9,0.9,0.08,0.06,0.4,0.4,1,6,6,6.0,0.05,0.05,0.06
167,Mullheizkraftwerk Neustadt,Waste | Steam Turbine,DE,50Hertz,54.096,10.793,5.292,0.0,50Hertz,B292,MSW,1,1,0,0,32.0,0.08,0.9,0.92,0.08,0.06,0.35,0.35,1,6,6,5.0,0.05,0.05,0.06
168,Kawasaki Gpd,Natural Gas | CCGT,DE,50Hertz,54.358774,11.068151,3.8561,0.0,50Hertz,B292,NGCC,1,0,0,0,42.0,0.4,0.92,1.0,0.06,0.1,0.5,0.5,1,4,4,6.0,0.05,0.05,0.075
169,Bhkw Aja Gromitz,Natural Gas | Combustion Engine,DE,50Hertz,54.14384910696612,10.867989814236772,2.6270000000000002,0.0,50Hertz,B292,NGCT,1,0,0,0,68.0,0.58,0.86,1.0,0.08,0.12,1.0,1.0,1,1,1,8.0,0.08,0.08,0.1
170,Gen Kremper Weg,Oil | Combustion Engine,DE,50Hertz,54.09783106044905,10.794810987910191,2.895,0.0,50Hertz,B292,Oil,1,0,0,0,110.0,0.82,0.88,1.0,0.1,0.08,1.0,1.0,1,1,1,10.0,0.06,0.06,0.08
171,Abr,Solar | PP,DE,50Hertz,54.228390777533946,10.918622991472082,85.420605,0.0,50Hertz,B292,SolarPV,0,1,1,0,2.0,0.0,0.15,1.0,0.03,0.0,1.0,1.0,0,0,0,0.0,0.0,0.0,0.0
172,Ake,Wind | Onshore,DE,50Hertz,54.229646950928995,10.934821696392971,614.966,0.0,50Hertz,B292,WindOn,0,1,1,0,3.0,0.0,0.18,1.0,0.05,0.0,1.0,1.0,0,0,0,0.0,0.0,0.0,0.0
173,Abr,Natural Gas | Combustion Engine,DE,50Hertz,52.5022764577398,13.273737711538462,4.212,0.0,50Hertz,B303,NGCT,1,0,0,0,68.0,0.58,0.86,1.0,0.08,0.12,1.0,1.0,1,1,1,8.0,0.08,0.08,0.1
174,Nea Fsz,Oil | Combustion Engine,DE,50Hertz,52.50467856041132,13.276269969151672,7.779999999999999,0.0,50Hertz,B303,Oil,1,0,0,0,110.0,0.82,0.88,1.0,0.1,0.08,1.0,1.0,1,1,1,10.0,0.06,0.06,0.08
175,Bsh Berlin,Solar | PP,DE,50Hertz,52.50789097152772,13.276751917681874,6.02832,0.0,50Hertz,B303,SolarPV,0,1,1,0,2.0,0.0,0.15,1.0,0.03,0.0,1.0,1.0,0,0,0,0.0,0.0,0.0,0.0
176,Agrargenossenschaft Uckermark Agrar Eg,Biogas | Combustion Engine,DE,50Hertz,53.52232179758133,13.774072004194744,22.409,0.0,50Hertz,B305,Bio,1,1,0,0,39.0,0.1,0.9,0.9,0.08,0.06,0.4,0.4,1,6,6,6.0,0.05,0.05,0.06
177,Bhkw,Natural Gas | Combustion Engine,DE,50Hertz,53.50261248214285,14.004594526785715,1.008,0.0,50Hertz,B305,NGCT,1,0,0,0,68.0,0.58,0.86,1.0,0.08,0.12,1.0,1.0,1,1,1,8.0,0.08,0.08,0.1
178,Nea Hh,Oil | Combustion Engine,DE,50Hertz,53.510059000000005,14.009179,0.1,0.0,50Hertz,B305,Oil,1,0,0,0,110.0,0.82,0.88,1.0,0.1,0.08,1.0,1.0,1,1,1,10.0,0.06,0.06,0.08
179,Abr,Solar | PP,DE,50Hertz,53.49397762523672,13.83441039486027,92.87764,0.0,50Hertz,B305,SolarPV,0,1,1,0,2.0,0.0,0.15,1.0,0.03,0.0,1.0,1.0,0,0,0,0.0,0.0,0.0,0.0
180,Blumenhagen,Wind | Onshore,DE,50Hertz,53.443203827267475,13.92622577057819,752.435,0.0,50Hertz,B305,WindOn,0,1,1,0,3.0,0.0,0.18,1.0,0.05,0.0,1.0,1.0,0,0,0,0.0,0.0,0.0,0.0
181,Bga Lubs,Biogas | Combustion Engine,DE,50Hertz,53.593837210778744,14.029584456897641,7.923,0.0,50Hertz,B306,Bio,1,1,0,0,39.0,0.1,0.9,0.9,0.08,0.06,0.4,0.4,1,6,6,6.0,0.05,0.05,0.06
182,Bhkw Egg,Natural Gas | Combustion Engine,DE,50Hertz,53.64619123529412,14.023064058823529,0.85,0.0,50Hertz,B306,NGCT,1,0,0,0,68.0,0.58,0.86,1.0,0.08,0.12,1.0,1.0,1,1,1,8.0,0.08,0.08,0.1
183,Abr,Solar | PP,DE,50Hertz,53.53395815588918,14.15081789572044,224.823942,0.0,50Hertz,B306,SolarPV,0,1,1,0,2.0,0.0,0.15,1.0,0.03,0.0,1.0,1.0,0,0,0,0.0,0.0,0.0,0.0
184,Bergholz,Wind | Onshore,DE,50Hertz,53.43867974137235,14.235508534760376,210.225,0.0,50Hertz,B306,WindOn,0,1,1,0,3.0,0.0,0.18,1.0,0.05,0.0,1.0,1.0,0,0,0,0.0,0.0,0.0,0.0
185,Bhkw,Biogas | Combustion Engine,DE,50Hertz,54.360945146431206,12.11363869205298,2.718,0.0,50Hertz,B31,Bio,1,1,0,0,39.0,0.1,0.9,0.9,0.08,0.06,0.4,0.4,1,6,6,6.0,0.05,0.05,0.06
186,Bhkw Hd,Natural Gas | CCGT,DE,50Hertz,54.175731,12.11274,0.136,0.0,50Hertz,B31,NGCC,1,0,0,0,42.0,0.4,0.92,1.0,0.06,0.1,0.5,0.5,1,4,4,6.0,0.05,0.05,0.075
187,Bhkw Aja Warnemunde,Natural Gas | Combustion Engine,DE,50Hertz,54.209617035799525,12.237041426730311,2.0949999999999998,0.0,50Hertz,B31,NGCT,1,0,0,0,68.0,0.58,0.86,1.0,0.08,0.12,1.0,1.0,1,1,1,8.0,0.08,0.08,0.1
188,Aton Kni,Solar | PP,DE,50Hertz,54.24312105571519,12.322476083821542,48.52106,0.0,50Hertz,B31,SolarPV,0,1,1,0,2.0,0.0,0.15,1.0,0.03,0.0,1.0,1.0,0,0,0,0.0,0.0,0.0,0.0
189,Borg,Wind | Onshore,DE,50Hertz,54.408016440993784,11.481081592132504,48.3,0.0,50Hertz,B31,WindOn,0,1,1,0,3.0,0.0,0.18,1.0,0.05,0.0,1.0,1.0,0,0,0,0.0,0.0,0.0,0.0
190,Marzahn,Natural Gas | CCGT,DE,50Hertz,52.525284,13.521297999999998,189.5,0.0,50Hertz,B317,NGCC,1,0,0,0,42.0,0.4,0.92,1.0,0.06,0.1,0.5,0.5,1,4,4,6.0,0.05,0.05,0.075
191,Bhkw,Natural Gas | Combustion Engine,DE,50Hertz,52.520396864928905,13.518294462085308,0.8440000000000001,0.0,50Hertz,B317,NGCT,1,0,0,0,68.0,0.58,0.86,1.0,0.08,0.12,1.0,1.0,1,1,1,8.0,0.08,0.08,0.1
192,Marzahn,Other | Steam Turbine,DE,50Hertz,52.525284,13.521298,69.3,0.0,50Hertz,B317,Other,1,0,0,0,55.0,0.25,0.85,0.9,0.08,0.05,0.4,0.4,1,4,4,5.0,0.04,0.04,0.05
193,Alt Biesdorf,Solar | PP,DE,50Hertz,52.52793973971413,13.512869372313563,2.188075,0.0,50Hertz,B317,SolarPV,0,1,1,0,2.0,0.0,0.15,1.0,0.03,0.0,1.0,1.0,0,0,0,0.0,0.0,0.0,0.0
194,Biogas Bhkw Nordring,Biogas | Combustion Engine,DE,50Hertz,52.56201,13.549647,0.133,0.0,50Hertz,B318,Bio,1,1,0,0,39.0,0.1,0.9,0.9,0.08,0.06,0.4,0.4,1,6,6,6.0,0.05,0.05,0.06
195,Bhkw Khd,Natural Gas | Combustion Engine,DE,50Hertz,52.506572,13.593502,0.142,0.0,50Hertz,B318,NGCT,1,0,0,0,68.0,0.58,0.86,1.0,0.08,0.12,1.0,1.0,1,1,1,8.0,0.08,0.08,0.1
196,Notstromaggregat,Oil | Combustion Engine,DE,50Hertz,52.527215,13.541425,2.115,0.0,50Hertz,B318,Oil,1,0,0,0,110.0,0.82,0.88,1.0,0.1,0.08,1.0,1.0,1,1,1,10.0,0.06,0.06,0.08
197,Alt Mahlsdorf,Solar | PP,DE,50Hertz,52.55054558466179,13.573668949339034,12.603885,0.0,50Hertz,B318,SolarPV,0,1,1,0,2.0,0.0,0.15,1.0,0.03,0.0,1.0,1.0,0,0,0,0.0,0.0,0.0,0.0
198,Bad Oldesloe Bhkw,Biogas | Combustion Engine,DE,50Hertz,53.90368201920273,10.511064460296575,28.121,0.0,50Hertz,B321,Bio,1,1,0,0,39.0,0.1,0.9,0.9,0.08,0.06,0.4,0.4,1,6,6,6.0,0.05,0.05,0.06
199,Bhkw Gen Ohne Spillingmotor,Natural Gas | CHP,DE,50Hertz,53.849623076446285,10.670366551652892,4.356,0.0,50Hertz,B321,NGCC,1,0,0,0,42.0,0.4,0.92,1.0,0.06,0.1,0.5,0.5,1,4,4,6.0,0.05,0.05,0.075
200,Agenitor Eg,Natural Gas | Combustion Engine,DE,50Hertz,53.89257276593056,10.616316833425808,29.28725,0.0,50Hertz,B321,NGCT,1,0,0,0,68.0,0.58,0.86,1.0,0.08,0.12,1.0,1.0,1,1,1,8.0,0.08,0.08,0.1
201,Kdl Bad Oldesloe,Oil | Combustion Engine,DE,50Hertz,53.8747904310054,10.431584505904183,2.3712,0.0,50Hertz,B321,Oil,1,0,0,0,110.0,0.82,0.88,1.0,0.1,0.08,1.0,1.0,1,1,1,10.0,0.06,0.06,0.08
202,Spillingmotor Standort Gen,Other | PP,DE,50Hertz,53.848911,10.674444,0.9,0.0,50Hertz,B321,Other,1,0,0,0,55.0,0.25,0.85,0.9,0.08,0.05,0.4,0.4,1,4,4,5.0,0.04,0.04,0.05
203,Abo Sonne,Solar | PP,DE,50Hertz,53.90260436606824,10.444119837304875,97.508515,0.0,50Hertz,B321,SolarPV,0,1,1,0,2.0,0.0,0.15,1.0,0.03,0.0,1.0,1.0,0,0,0,0.0,0.0,0.0,0.0
204,Ahrensbok,Wind | Onshore,DE,50Hertz,53.95447358036922,10.543352071007725,572.825,0.0,50Hertz,B321,WindOn,0,1,1,0,3.0,0.0,0.18,1.0,0.05,0.0,1.0,1.0,0,0,0,0.0,0.0,0.0,0.0
205,Adap,Biogas | Combustion Engine,DE,50Hertz,54.16410687928844,12.403008893265564,7.87,0.0,50Hertz,B360,Bio,1,1,0,0,39.0,0.1,0.9,0.9,0.08,0.06,0.4,0.4,1,6,6,6.0,0.05,0.05,0.06
206,Eisbar Eis Produktions Gmbh Biogas,Waste | Combustion Engine,DE,50Hertz,54.249376000000005,12.501277,0.32,0.0,50Hertz,B360,MSW,1,1,0,0,32.0,0.08,0.9,0.92,0.08,0.06,0.35,0.35,1,6,6,5.0,0.05,0.05,0.06
207,Adap Tribohm,Solar | PP,DE,50Hertz,54.189137551181986,12.475506084475475,24.87799,0.0,50Hertz,B360,SolarPV,0,1,1,0,2.0,0.0,0.15,1.0,0.03,0.0,1.0,1.0,0,0,0,0.0,0.0,0.0,0.0
208,Am Weidengrund,Wind | Onshore,DE,50Hertz,54.17539792623574,12.439136227629911,98.625,0.0,50Hertz,B360,WindOn,0,1,1,0,3.0,0.0,0.18,1.0,0.05,0.0,1.0,1.0,0,0,0,0.0,0.0,0.0,0.0
209,Bga Jena Anlage,Biogas | Combustion Engine,DE,50Hertz,50.920542080468515,11.67891960876179,6.574,0.0,50Hertz,B366,Bio,1,1,0,0,39.0,0.1,0.9,0.9,0.08,0.06,0.4,0.4,1,6,6,6.0,0.05,0.05,0.06
210,Wasserkraftwerk,Hydro | Run-Of-River,DE,50Hertz,50.90275948433304,11.592122866606983,2.234,0.0,50Hertz,B366,Hydro,0,1,0,0,7.5,0.0,0.7,0.65,0.04,0.0,1.0,1.0,0,0,0,0.0,0.0,0.0,0.0
211,Jena,Natural Gas | CCGT,DE,50Hertz,50.8965754,11.58634,241.875,0.0,50Hertz,B366,NGCC,1,0,0,0,42.0,0.4,0.92,1.0,0.06,0.1,0.5,0.5,1,4,4,6.0,0.05,0.05,0.075
212,Bhkw,Natural Gas | Combustion Engine,DE,50Hertz,50.87308143891403,11.645579429400163,8.619,0.0,50Hertz,B366,NGCT,1,0,0,0,68.0,0.58,0.86,1.0,0.08,0.12,1.0,1.0,1,1,1,8.0,0.08,0.08,0.1
213,Iss Nea,Oil | Combustion Engine,DE,50Hertz,50.90202911417229,11.601678574196109,12.595,0.0,50Hertz,B366,Oil,1,0,0,0,110.0,0.82,0.88,1.0,0.1,0.08,1.0,1.0,1,1,1,10.0,0.06,0.06,0.08
214,Consilium Solardach Schops,Solar | PP,DE,50Hertz,50.91011462432635,11.5833950979693,27.986951,0.0,50Hertz,B366,SolarPV,0,1,1,0,2.0,0.0,0.15,1.0,0.03,0.0,1.0,1.0,0,0,0,0.0,0.0,0.0,0.0
215,Coppanz Erweiterung,Wind | Onshore,DE,50Hertz,50.89768801972386,11.50392308086785,50.7,0.0,50Hertz,B366,WindOn,0,1,1,0,3.0,0.0,0.18,1.0,0.05,0.0,1.0,1.0,0,0,0,0.0,0.0,0.0,0.0
216,Bga Langenwetzendorf Anlage Bhkw,Biogas | Combustion Engine,DE,50Hertz,50.70488926252709,11.994035892898125,7.843,0.0,50Hertz,B390,Bio,1,1,0,0,39.0,0.1,0.9,0.9,0.08,0.06,0.4,0.4,1,6,6,6.0,0.05,0.05,0.06
217,Anlage,Waste | Combustion Engine,DE,50Hertz,50.75143569230769,11.94534881043956,0.728,0.0,50Hertz,B390,MSW,1,1,0,0,32.0,0.08,0.9,0.92,0.08,0.06,0.35,0.35,1,6,6,5.0,0.05,0.05,0.06
218,Heizhaus Awg Weida,Natural Gas | Combustion Engine,DE,50Hertz,50.771067799401195,12.04842135111595,3.674,0.0,50Hertz,B390,NGCT,1,0,0,0,68.0,0.58,0.86,1.0,0.08,0.12,1.0,1.0,1,1,1,8.0,0.08,0.08,0.1
219,Agn,Solar | PP,DE,50Hertz,50.71893376135083,11.954887466194824,45.770892,0.0,50Hertz,B390,SolarPV,0,1,1,0,2.0,0.0,0.15,1.0,0.03,0.0,1.0,1.0,0,0,0,0.0,0.0,0.0,0.0
220,Auma,Wind | Onshore,DE,50Hertz,50.71287847482954,11.825372917080562,95.032,0.0,50Hertz,B390,WindOn,0,1,1,0,3.0,0.0,0.18,1.0,0.05,0.0,1.0,1.0,0,0,0,0.0,0.0,0.0,0.0
221,Bhkw Bg,Biogas | Combustion Engine,DE,50Hertz,50.74618265023848,12.187765216216215,1.887,0.0,50Hertz,B391,Bio,1,1,0,0,39.0,0.1,0.9,0.9,0.08,0.06,0.4,0.4,1,6,6,6.0,0.05,0.05,0.06
222,Generator,Hydro | Run-Of-River,DE,50Hertz,50.70835995652174,12.174912403726708,0.805,0.0,50Hertz,B391,Hydro,0,1,0,0,7.5,0.0,0.7,0.65,0.04,0.0,1.0,1.0,0,0,0,0.0,0.0,0.0,0.0
223,Clodra,Solar | PP,DE,50Hertz,50.74785673723351,12.144841861866443,5.2442,0.0,50Hertz,B391,SolarPV,0,1,1,0,2.0,0.0,0.15,1.0,0.03,0.0,1.0,1.0,0,0,0,0.0,0.0,0.0,0.0
224,Windpark Berga,Wind | Onshore,DE,50Hertz,50.745113909090904,12.170680727272726,1.1,0.0,50Hertz,B391,WindOn,0,1,1,0,3.0,0.0,0.18,1.0,0.05,0.0,1.0,1.0,0,0,0,0.0,0.0,0.0,0.0
225,Bga Hayn,Biogas | Combustion Engine,DE,50Hertz,51.45948482652477,10.639973878340191,55.91,0.0,50Hertz,B395,Bio,1,1,0,0,39.0,0.1,0.9,0.9,0.08,0.06,0.4,0.4,1,6,6,6.0,0.05,0.05,0.06
226,Lauterberg,Hydro | Run-Of-River,DE,50Hertz,51.69927063805271,10.688692983004465,13.886000000000001,0.0,50Hertz,B395,Hydro,0,1,0,0,7.5,0.0,0.7,0.65,0.04,0.0,1.0,1.0,0,0,0,0.0,0.0,0.0,0.0
227,Bhkw Freizeitbad Thyragrotte,Natural Gas | CCGT,DE,50Hertz,51.47218286561265,10.681351822134387,1.518,0.0,50Hertz,B395,NGCC,1,0,0,0,42.0,0.4,0.92,1.0,0.06,0.1,0.5,0.5,1,4,4,6.0,0.05,0.05,0.075
228,Bhkw,Natural Gas | Combustion Engine,DE,50Hertz,51.42090913143671,10.613566838218075,27.585900000000002,0.0,50Hertz,B395,NGCT,1,0,0,0,68.0,0.58,0.86,1.0,0.08,0.12,1.0,1.0,1,1,1,8.0,0.08,0.08,0.1
229,Bhkw Beinrode,Oil | Combustion Engine,DE,50Hertz,51.47799748275862,10.711111482758621,0.754,0.0,50Hertz,B395,Oil,1,0,0,0,110.0,0.82,0.88,1.0,0.1,0.08,1.0,1.0,1,1,1,10.0,0.06,0.06,0.08
230,Abr,Solar | PP,DE,50Hertz,51.42759072403462,10.721917968053232,286.057241,0.0,50Hertz,B395,SolarPV,0,1,1,0,2.0,0.0,0.15,1.0,0.03,0.0,1.0,1.0,0,0,0,0.0,0.0,0.0,0.0
231,Bothenheilingen,Wind | Onshore,DE,50Hertz,51.31680242547939,10.726011152120629,565.045,0.0,50Hertz,B395,WindOn,0,1,1,0,3.0,0.0,0.18,1.0,0.05,0.0,1.0,1.0,0,0,0,0.0,0.0,0.0,0.0
232,Agrargenossenschaft Laas Eg,Biogas | Combustion Engine,DE,50Hertz,51.31789759390083,13.520412990117455,76.325781,0.0,50Hertz,B396,Bio,1,1,0,0,39.0,0.1,0.9,0.9,0.08,0.06,0.4,0.4,1,6,6,6.0,0.05,0.05,0.06
233,Dampfturbine Sudzucker Ag Werk Brottewitz,Lignite | Steam Turbine,DE,50Hertz,51.459929,13.221306,1.6,0.0,50Hertz,B396,Coal,1,0,0,0,36.0,0.95,0.9,0.92,0.08,0.08,0.25,0.25,1,8,8,9.0,0.04,0.04,0.05
234,Finke,Hydro | PP,DE,50Hertz,51.305724,13.274718,0.58,0.0,50Hertz,B396,Hydro,0,1,0,0,7.5,0.0,0.7,0.65,0.04,0.0,1.0,1.0,0,0,0,0.0,0.0,0.0,0.0
235,Bmhkw Biomasseheizkraftwerk Elsterwerda,Waste | Steam Turbine,DE,50Hertz,51.465983,13.504711,11.5,0.0,50Hertz,B396,MSW,1,1,0,0,32.0,0.08,0.9,0.92,0.08,0.06,0.35,0.35,1,6,6,5.0,0.05,0.05,0.06
236,Steinweg,Natural Gas | CCGT,DE,50Hertz,51.180039018695744,13.490262097484976,4.493,0.0,50Hertz,B396,NGCC,1,0,0,0,42.0,0.4,0.92,1.0,0.06,0.1,0.5,0.5,1,4,4,6.0,0.05,0.05,0.075
237,Bhkw,Natural Gas | Combustion Engine,DE,50Hertz,51.27423354985818,13.33957299449866,27.2055,0.0,50Hertz,B396,NGCT,1,0,0,0,68.0,0.58,0.86,1.0,0.08,0.12,1.0,1.0,1,1,1,8.0,0.08,0.08,0.1
238,Gebaude Notstrom,Oil | Combustion Engine,DE,50Hertz,51.30457987032857,13.406327171432157,6.3792,0.0,50Hertz,B396,Oil,1,0,0,0,110.0,0.82,0.88,1.0,0.1,0.08,1.0,1.0,1,1,1,10.0,0.06,0.06,0.08
239,Abwarmenutzung Ofen,Other | PP,DE,50Hertz,51.314192000000006,13.273362,3.1,0.0,50Hertz,B396,Other,1,0,0,0,55.0,0.25,0.85,0.9,0.08,0.05,0.4,0.4,1,4,4,5.0,0.04,0.04,0.05
240,Abbundzentrum Dahlen Kwp Uberschusseinspeisung,Solar | PP,DE,50Hertz,51.38224702730331,13.33627193307817,485.651598,0.0,50Hertz,B396,SolarPV,0,1,1,0,2.0,0.0,0.15,1.0,0.03,0.0,1.0,1.0,0,0,0,0.0,0.0,0.0,0.0
241,Achim Dorner Beteiligungs Gmbh,Wind | Onshore,DE,50Hertz,51.42052151901037,13.293966667824128,541.415,0.0,50Hertz,B396,WindOn,0,1,1,0,3.0,0.0,0.18,1.0,0.05,0.0,1.0,1.0,0,0,0,0.0,0.0,0.0,0.0
242,Bag Zundstrahlmotor,Biogas | Combustion Engine,DE,50Hertz,51.27697991673338,14.421662355884706,2.498,0.0,50Hertz,B399,Bio,1,1,0,0,39.0,0.1,0.9,0.9,0.08,0.06,0.4,0.4,1,6,6,6.0,0.05,0.05,0.06
243,Ruhlmuhle,Hydro | Run-Of-River,DE,50Hertz,51.42132594520548,14.503817698630138,0.73,0.0,50Hertz,B399,Hydro,0,1,0,0,7.5,0.0,0.7,0.65,0.04,0.0,1.0,1.0,0,0,0,0.0,0.0,0.0,0.0
244,Bhkw Konigswartha,Natural Gas | Combustion Engine,DE,50Hertz,51.308257,14.342916,0.24,0.0,50Hertz,B399,NGCT,1,0,0,0,68.0,0.58,0.86,1.0,0.08,0.12,1.0,1.0,1,1,1,8.0,0.08,0.08,0.1
245,Anlage,Solar | PP,DE,50Hertz,51.32759302412613,14.410562670569169,11.28507,0.0,50Hertz,B399,SolarPV,0,1,1,0,2.0,0.0,0.15,1.0,0.03,0.0,1.0,1.0,0,0,0,0.0,0.0,0.0,0.0
246,Scheibe Trattendorf,Wind | Onshore,DE,50Hertz,51.446044,14.377522,2.0,0.0,50Hertz,B399,WindOn,0,1,1,0,3.0,0.0,0.18,1.0,0.05,0.0,1.0,1.0,0,0,0,0.0,0.0,0.0,0.0
247,Biogasanlage Neuamerika,Biogas | Combustion Engine,DE,50Hertz,50.497047592070935,12.813476664580072,1.917,0.0,50Hertz,B403,Bio,1,1,0,0,39.0,0.1,0.9,0.9,0.08,0.06,0.4,0.4,1,6,6,6.0,0.05,0.05,0.06
248,Kwk Annaberg Buchholz,Lignite | Steam Turbine,DE,50Hertz,50.593594882352946,12.962282613445378,1.19,0.0,50Hertz,B403,Coal,1,0,0,0,36.0,0.95,0.9,0.92,0.08,0.08,0.25,0.25,1,8,8,9.0,0.04,0.04,0.05
249,Breitenhof,Hydro | Run-Of-River,DE,50Hertz,50.539205708180866,12.920598747386304,7.652,0.0,50Hertz,B403,Hydro,0,1,0,0,7.5,0.0,0.7,0.65,0.04,0.0,1.0,1.0,0,0,0,0.0,0.0,0.0,0.0
250,Bhkw Ana,Natural Gas | CCGT,DE,50Hertz,50.59184144611528,12.950032748746866,1.596,0.0,50Hertz,B403,NGCC,1,0,0,0,42.0,0.4,0.92,1.0,0.06,0.1,0.5,0.5,1,4,4,6.0,0.05,0.05,0.075
251,Bhkw,Natural Gas | Combustion Engine,DE,50Hertz,50.57170076108465,12.998611709050934,2.729,0.0,50Hertz,B403,NGCT,1,0,0,0,68.0,0.58,0.86,1.0,0.08,0.12,1.0,1.0,1,1,1,8.0,0.08,0.08,0.1
252,Nea Azv,Oil | Combustion Engine,DE,50Hertz,50.5839658992248,12.995888147286822,2.58,0.0,50Hertz,B403,Oil,1,0,0,0,110.0,0.82,0.88,1.0,0.1,0.08,1.0,1.0,1,1,1,10.0,0.06,0.06,0.08
253,Anlage Teil,Solar | PP,DE,50Hertz,50.52700563383976,12.930387804034824,31.054395,0.0,50Hertz,B403,SolarPV,0,1,1,0,2.0,0.0,0.15,1.0,0.03,0.0,1.0,1.0,0,0,0,0.0,0.0,0.0,0.0
254,Bergwind Johstadt Im Windpark Johstadt,Wind | Onshore,DE,50Hertz,50.54452492771084,13.136729542168673,8.3,0.0,50Hertz,B403,WindOn,0,1,1,0,3.0,0.0,0.18,1.0,0.05,0.0,1.0,1.0,0,0,0,0.0,0.0,0.0,0.0
255,Bhkw,Biogas | Combustion Engine,DE,50Hertz,53.00931301240036,14.039610776439329,5.645,0.0,50Hertz,B406,Bio,1,1,0,0,39.0,0.1,0.9,0.9,0.08,0.06,0.4,0.4,1,6,6,6.0,0.05,0.05,0.06
256,Kwk Freizeitbad,Natural Gas | Combustion Engine,DE,50Hertz,53.062343,14.264386,0.237,0.0,50Hertz,B406,NGCT,1,0,0,0,68.0,0.58,0.86,1.0,0.08,0.12,1.0,1.0,1,1,1,8.0,0.08,0.08,0.1
257,Iks,Oil | Steam Turbine,DE,50Hertz,53.09285011450955,14.229678304030926,338.88,0.0,50Hertz,B406,Oil,1,0,0,0,110.0,0.82,0.88,1.0,0.1,0.08,1.0,1.0,1,1,1,10.0,0.06,0.06,0.08
258,Abstellhalle Schwedt,Solar | PP,DE,50Hertz,52.97053737012299,14.080240300355374,53.865675,0.0,50Hertz,B406,SolarPV,0,1,1,0,2.0,0.0,0.15,1.0,0.03,0.0,1.0,1.0,0,0,0,0.0,0.0,0.0,0.0
259,Bgb Gesellschaft Murow,Wind | Onshore,DE,50Hertz,53.04641577461598,14.064786164437548,322.25,0.0,50Hertz,B406,WindOn,0,1,1,0,3.0,0.0,0.18,1.0,0.05,0.0,1.0,1.0,0,0,0,0.0,0.0,0.0,0.0
260,Am Kranzberg,Biogas | Combustion Engine,DE,50Hertz,50.78572420269898,12.403268808041862,14.524000000000001,0.0,50Hertz,B408,Bio,1,1,0,0,39.0,0.1,0.9,0.9,0.08,0.06,0.4,0.4,1,6,6,6.0,0.05,0.05,0.06
261,Cainsdorf,Hydro | Run-Of-River,DE,50Hertz,50.73228164237517,12.5213175634278,2.964,0.0,50Hertz,B408,Hydro,0,1,0,0,7.5,0.0,0.7,0.65,0.04,0.0,1.0,1.0,0,0,0,0.0,0.0,0.0,0.0
262,Kawasaki Gasturbine,Natural Gas | CCGT,DE,50Hertz,50.87846,12.348969,0.625,0.0,50Hertz,B408,NGCC,1,0,0,0,42.0,0.4,0.92,1.0,0.06,0.1,0.5,0.5,1,4,4,6.0,0.05,0.05,0.075
263,Bhkw,Natural Gas | Combustion Engine,DE,50Hertz,50.78025061622908,12.48043295754894,23.957,0.0,50Hertz,B408,NGCT,1,0,0,0,68.0,0.58,0.86,1.0,0.08,0.12,1.0,1.0,1,1,1,8.0,0.08,0.08,0.1
264,Netzersatzanlage,Oil | Combustion Engine,DE,50Hertz,50.76487821276596,12.523415276595745,0.9400000000000001,0.0,50Hertz,B408,Oil,1,0,0,0,110.0,0.82,0.88,1.0,0.1,0.08,1.0,1.0,1,1,1,10.0,0.06,0.06,0.08
265,Ake August Horch Str,Solar | PP,DE,50Hertz,50.75684420021288,12.480190100299293,171.528098,0.0,50Hertz,B408,SolarPV,0,1,1,0,2.0,0.0,0.15,1.0,0.03,0.0,1.0,1.0,0,0,0,0.0,0.0,0.0,0.0
266,Bernsdorf Gersdorf,Wind | Onshore,DE,50Hertz,50.79481671386535,12.506546589408178,281.0565,0.0,50Hertz,B408,WindOn,0,1,1,0,3.0,0.0,0.18,1.0,0.05,0.0,1.0,1.0,0,0,0,0.0,0.0,0.0,0.0
267,Altablagerung Deponie Grossziethen Bhkw,Biogas | Combustion Engine,DE,50Hertz,52.39202221050757,13.479661273731079,11.23,0.0,50Hertz,B432,Bio,1,1,0,0,39.0,0.1,0.9,0.9,0.08,0.06,0.4,0.4,1,6,6,6.0,0.05,0.05,0.06
268,Schoneweide,Hard Coal | Steam Turbine,DE,50Hertz,52.460648,13.504607999999998,9.5,0.0,50Hertz,B432,Coal,1,0,0,0,36.0,0.95,0.9,0.92,0.08,0.08,0.25,0.25,1,8,8,9.0,0.04,0.04,0.05
269,Bmkw Konigs Wusterhausen,Waste | Steam Turbine,DE,50Hertz,52.37064911237096,13.570211537956984,39.334,0.0,50Hertz,B432,MSW,1,1,0,0,32.0,0.08,0.9,0.92,0.08,0.06,0.35,0.35,1,6,6,5.0,0.05,0.05,0.06
270,Berlin Klingenberg,Natural Gas | Steam Turbine,DE,50Hertz,52.48589410509845,13.497368508723946,376.225,0.0,50Hertz,B432,NGCC,1,0,0,0,42.0,0.4,0.92,1.0,0.06,0.1,0.5,0.5,1,4,4,6.0,0.05,0.05,0.075
271,Abr,Natural Gas | Combustion Engine,DE,50Hertz,52.43412108860784,13.513227742980341,91.61529999999999,0.0,50Hertz,B432,NGCT,1,0,0,0,68.0,0.58,0.86,1.0,0.08,0.12,1.0,1.0,1,1,1,8.0,0.08,0.08,0.1
272,Abr,Oil | Combustion Engine,DE,50Hertz,52.39467496248762,13.514779380162798,23.219,0.0,50Hertz,B432,Oil,1,0,0,0,110.0,0.82,0.88,1.0,0.1,0.08,1.0,1.0,1,1,1,10.0,0.06,0.06,0.08
273,Am Mollenberg,Solar | PP,DE,50Hertz,52.38102368294677,13.558307540534166,39.614828,0.0,50Hertz,B432,SolarPV,0,1,1,0,2.0,0.0,0.15,1.0,0.03,0.0,1.0,1.0,0,0,0,0.0,0.0,0.0,0.0
274,Kablow,Wind | Onshore,DE,50Hertz,52.337837243781095,13.732125119402983,40.2,0.0,50Hertz,B432,WindOn,0,1,1,0,3.0,0.0,0.18,1.0,0.05,0.0,1.0,1.0,0,0,0,0.0,0.0,0.0,0.0
275,Bga Braunsdorf,Biogas | Combustion Engine,DE,50Hertz,50.81337568055721,12.801673037980711,8.399000000000001,0.0,50Hertz,B436,Bio,1,1,0,0,39.0,0.1,0.9,0.9,0.08,0.06,0.4,0.4,1,6,6,6.0,0.05,0.05,0.06
276,Wka Penig,Hydro | Run-Of-River,DE,50Hertz,50.895406866666676,12.647227788888888,2.7,0.0,50Hertz,B436,Hydro,0,1,0,0,7.5,0.0,0.7,0.65,0.04,0.0,1.0,1.0,0,0,0,0.0,0.0,0.0,0.0
277,Bhkw Gg,Natural Gas | Combustion Engine,DE,50Hertz,50.82568650207469,12.799476742738587,1.205,0.0,50Hertz,B436,NGCT,1,0,0,0,68.0,0.58,0.86,1.0,0.08,0.12,1.0,1.0,1,1,1,8.0,0.08,0.08,0.1
278,Notstromersatzanlage Rabenstein,Oil | Combustion Engine,DE,50Hertz,50.820968,12.825828,0.5,0.0,50Hertz,B436,Oil,1,0,0,0,110.0,0.82,0.88,1.0,0.1,0.08,1.0,1.0,1,1,1,10.0,0.06,0.06,0.08
279,Abr,Solar | PP,DE,50Hertz,50.8190089138153,12.7856016668414,42.8275,0.0,50Hertz,B436,SolarPV,0,1,1,0,2.0,0.0,0.15,1.0,0.03,0.0,1.0,1.0,0,0,0,0.0,0.0,0.0,0.0
280,Bernsdorf Gersdorf,Wind | Onshore,DE,50Hertz,50.83013636708075,12.725571240993787,80.5,0.0,50Hertz,B436,WindOn,0,1,1,0,3.0,0.0,0.18,1.0,0.05,0.0,1.0,1.0,0,0,0,0.0,0.0,0.0,0.0
281,Bga Claussnitz,Biogas | Combustion Engine,DE,50Hertz,50.91040208888306,12.87596632013634,3.814,0.0,50Hertz,B437,Bio,1,1,0,0,39.0,0.1,0.9,0.9,0.08,0.06,0.4,0.4,1,6,6,6.0,0.05,0.05,0.06
282,Alta,Hydro | Run-Of-River,DE,50Hertz,50.954919647415856,12.766147779841825,5.437,0.0,50Hertz,B437,Hydro,0,1,0,0,7.5,0.0,0.7,0.65,0.04,0.0,1.0,1.0,0,0,0,0.0,0.0,0.0,0.0
283,Bhkw,Natural Gas | CCGT,DE,50Hertz,50.91445889403973,12.757930029801324,3.02,0.0,50Hertz,B437,NGCC,1,0,0,0,42.0,0.4,0.92,1.0,0.06,0.1,0.5,0.5,1,4,4,6.0,0.05,0.05,0.075
284,Bhkw Modul,Natural Gas | Combustion Engine,DE,50Hertz,50.873706246894415,12.808648709627327,0.644,0.0,50Hertz,B437,NGCT,1,0,0,0,68.0,0.58,0.86,1.0,0.08,0.12,1.0,1.0,1,1,1,8.0,0.08,0.08,0.1
285,Motorenprufstand Hottest Maz Halle,Oil | Combustion Engine,DE,50Hertz,50.82469228941909,12.903975054979254,2.892,0.0,50Hertz,B437,Oil,1,0,0,0,110.0,0.82,0.88,1.0,0.1,0.08,1.0,1.0,1,1,1,10.0,0.06,0.06,0.08
286,Ahollinger Lunzenau Kwp,Solar | PP,DE,50Hertz,50.907965600178656,12.818347016032861,42.971872,0.0,50Hertz,B437,SolarPV,0,1,1,0,2.0,0.0,0.15,1.0,0.03,0.0,1.0,1.0,0,0,0,0.0,0.0,0.0,0.0
287,Elsdorf,Wind | Onshore,DE,50Hertz,50.931026198529416,12.820941286764706,29.919999999999998,0.0,50Hertz,B437,WindOn,0,1,1,0,3.0,0.0,0.18,1.0,0.05,0.0,1.0,1.0,0,0,0,0.0,0.0,0.0,0.0
288,Anlage,Biogas | Combustion Engine,DE,50Hertz,51.423861162167576,12.537117271632829,34.97,0.0,50Hertz,B439,Bio,1,1,0,0,39.0,0.1,0.9,0.9,0.08,0.06,0.4,0.4,1,6,6,6.0,0.05,0.05,0.06
289,Bmkw Delitzsch,Waste | Steam Turbine,DE,50Hertz,51.49819200648508,12.320154475745785,19.275000000000002,0.0,50Hertz,B439,MSW,1,1,0,0,32.0,0.08,0.9,0.92,0.08,0.06,0.35,0.35,1,6,6,5.0,0.05,0.05,0.06
290,Bhkw,Natural Gas | CHP,DE,50Hertz,51.34746972787825,12.408239617104616,363.30169,0.0,50Hertz,B439,NGCC,1,0,0,0,42.0,0.4,0.92,1.0,0.06,0.1,0.5,0.5,1,4,4,6.0,0.05,0.05,0.075
291,Bhkw,Natural Gas | Combustion Engine,DE,50Hertz,51.398105560634235,12.403916059476876,53.5704,0.0,50Hertz,B439,NGCT,1,0,0,0,68.0,0.58,0.86,1.0,0.08,0.12,1.0,1.0,1,1,1,8.0,0.08,0.08,0.1
292,An Den Tierkliniken Nea,Oil | Combustion Engine,DE,50Hertz,51.36993282071724,12.374615491732433,37.254,0.0,50Hertz,B439,Oil,1,0,0,0,110.0,0.82,0.88,1.0,0.1,0.08,1.0,1.0,1,1,1,10.0,0.06,0.06,0.08
293,Leipzig Nord,Other | Steam Turbine,DE,50Hertz,51.351271000000004,12.378503,44.414,0.0,50Hertz,B439,Other,1,0,0,0,55.0,0.25,0.85,0.9,0.08,0.05,0.4,0.4,1,4,4,5.0,0.04,0.04,0.05
294,Abr,Solar | PP,DE,50Hertz,51.42297580954676,12.515537624096929,388.580133,0.0,50Hertz,B439,SolarPV,0,1,1,0,2.0,0.0,0.15,1.0,0.03,0.0,1.0,1.0,0,0,0,0.0,0.0,0.0,0.0
295,Fuchshain,Wind | Onshore,DE,50Hertz,51.446481468714445,12.42138642965491,52.74,0.0,50Hertz,B439,WindOn,0,1,1,0,3.0,0.0,0.18,1.0,0.05,0.0,1.0,1.0,0,0,0,0.0,0.0,0.0,0.0
296,Anlage,Biogas | Combustion Engine,DE,50Hertz,53.56813342548009,11.658229424202498,25.047,0.0,50Hertz,B444,Bio,1,1,0,0,39.0,0.1,0.9,0.9,0.08,0.06,0.4,0.4,1,6,6,6.0,0.05,0.05,0.06
297,Wasserkraftwer Zulow,Hydro | Run-Of-River,DE,50Hertz,53.63175600000001,11.82741075,1.2,0.0,50Hertz,B444,Hydro,0,1,0,0,7.5,0.0,0.7,0.65,0.04,0.0,1.0,1.0,0,0,0,0.0,0.0,0.0,0.0
298,Bhkw,Natural Gas | Combustion Engine,DE,50Hertz,53.501096,11.773036,0.36,0.0,50Hertz,B444,NGCT,1,0,0,0,68.0,0.58,0.86,1.0,0.08,0.12,1.0,1.0,1,1,1,8.0,0.08,0.08,0.1
299,Ausbau Trams Kwp,Solar | PP,DE,50Hertz,53.581806918611825,11.680319632513717,212.4854,0.0,50Hertz,B444,SolarPV,0,1,1,0,2.0,0.0,0.15,1.0,0.03,0.0,1.0,1.0,0,0,0,0.0,0.0,0.0,0.0
300,Bvt Windpark Zolkow,Wind | Onshore,DE,50Hertz,53.54469864800759,11.777855557084123,316.2,0.0,50Hertz,B444,WindOn,0,1,1,0,3.0,0.0,0.18,1.0,0.05,0.0,1.0,1.0,0,0,0,0.0,0.0,0.0,0.0
301,Bga Lage Bhkw,Biogas | Combustion Engine,DE,50Hertz,54.30776303138823,10.5893617095951,11.756,0.0,50Hertz,B45,Bio,1,1,0,0,39.0,0.1,0.9,0.9,0.08,0.06,0.4,0.4,1,6,6,6.0,0.05,0.05,0.06
302,Kiel Phase,Hard Coal | Steam Turbine,DE,50Hertz,54.338129071065985,10.172463477157361,394.0,0.0,50Hertz,B45,Coal,1,0,0,0,36.0,0.95,0.9,0.92,0.08,0.08,0.25,0.25,1,8,8,9.0,0.04,0.04,0.05
303,Wka,Hydro | Run-Of-River,DE,50Hertz,54.327425,10.186715,0.1,0.0,50Hertz,B45,Hydro,0,1,0,0,7.5,0.0,0.7,0.65,0.04,0.0,1.0,1.0,0,0,0,0.0,0.0,0.0,0.0
304,Kustenkraftwerk Motor,Natural Gas | CCGT,DE,50Hertz,54.340999999999994,10.179,189.12,0.0,50Hertz,B45,NGCC,1,0,0,0,42.0,0.4,0.92,1.0,0.06,0.1,0.5,0.5,1,4,4,6.0,0.05,0.05,0.075
305,Ameos Heiligenhafen Haus Bhkw,Natural Gas | Combustion Engine,DE,50Hertz,54.40395732266401,10.346067636978132,5.03,0.0,50Hertz,B45,NGCT,1,0,0,0,68.0,0.58,0.86,1.0,0.08,0.12,1.0,1.0,1,1,1,8.0,0.08,0.08,0.1
306,Kustenkraftwerk,Oil | Combustion Engine,DE,50Hertz,54.33264089254681,10.158634103292131,1.6341999999999999,0.0,50Hertz,B45,Oil,1,0,0,0,110.0,0.82,0.88,1.0,0.1,0.08,1.0,1.0,1,1,1,10.0,0.06,0.06,0.08
307,Abr,Solar | PP,DE,50Hertz,54.354461411053286,10.737232831237696,40.905255000000004,0.0,50Hertz,B45,SolarPV,0,1,1,0,2.0,0.0,0.15,1.0,0.03,0.0,1.0,1.0,0,0,0,0.0,0.0,0.0,0.0
308,Burger Windpark Westfehmarn Gmbh Co Kg,Wind | Onshore,DE,50Hertz,54.42399177095069,10.89505048314412,288.47499999999997,0.0,50Hertz,B45,WindOn,0,1,1,0,3.0,0.0,0.18,1.0,0.05,0.0,1.0,1.0,0,0,0,0.0,0.0,0.0,0.0
309,Altlandsberg,Solar | PP,DE,50Hertz,52.58784136001553,13.797424569884189,3.19314,0.0,50Hertz,B5,SolarPV,0,1,1,0,2.0,0.0,0.15,1.0,0.03,0.0,1.0,1.0,0,0,0,0.0,0.0,0.0,0.0
310,Windpark Protzel,Wind | Onshore,DE,50Hertz,52.642259333333335,14.011387333333333,6.0,0.0,50Hertz,B5,WindOn,0,1,1,0,3.0,0.0,0.18,1.0,0.05,0.0,1.0,1.0,0,0,0,0.0,0.0,0.0,0.0
311,Bga,Biogas | Combustion Engine,DE,50Hertz,54.158262485300696,10.193170630855755,31.294,0.0,50Hertz,B529,Bio,1,1,0,0,39.0,0.1,0.9,0.9,0.08,0.06,0.4,0.4,1,6,6,6.0,0.05,0.05,0.06
312,Neumunster,Hard Coal | Steam Turbine,DE,50Hertz,54.081997,9.987944,34.47,0.0,50Hertz,B529,Coal,1,0,0,0,36.0,0.95,0.9,0.92,0.08,0.08,0.25,0.25,1,8,8,9.0,0.04,0.04,0.05
313,Wkw Raisdorf,Hydro | Run-Of-River,DE,50Hertz,54.29013194545454,10.242021054545454,2.2,0.0,50Hertz,B529,Hydro,0,1,0,0,7.5,0.0,0.7,0.65,0.04,0.0,1.0,1.0,0,0,0,0.0,0.0,0.0,0.0
314,Mullverbrennung Kiel,Waste | Steam Turbine,DE,50Hertz,54.11112315464118,10.00404412273109,30.962,0.0,50Hertz,B529,MSW,1,1,0,0,32.0,0.08,0.9,0.92,0.08,0.06,0.35,0.35,1,6,6,5.0,0.05,0.05,0.06
315,Bhkw Kiel Wellsee,Natural Gas | CCGT,DE,50Hertz,54.280120999999994,10.154363,0.372,0.0,50Hertz,B529,NGCC,1,0,0,0,42.0,0.4,0.92,1.0,0.06,0.1,0.5,0.5,1,4,4,6.0,0.05,0.05,0.075
316,Bhkw,Natural Gas | Combustion Engine,DE,50Hertz,54.09466964302107,10.103320108908825,4.793,0.0,50Hertz,B529,NGCT,1,0,0,0,68.0,0.58,0.86,1.0,0.08,0.12,1.0,1.0,1,1,1,8.0,0.08,0.08,0.1
317,Bhkw Bad Am Stadtwald,Oil | Combustion Engine,DE,50Hertz,54.1268070942519,10.000441747781066,7.5712,0.0,50Hertz,B529,Oil,1,0,0,0,110.0,0.82,0.88,1.0,0.1,0.08,1.0,1.0,1,1,1,10.0,0.06,0.06,0.08
318,Abr,Solar | PP,DE,50Hertz,54.14004290499725,10.056428410916466,110.220436,0.0,50Hertz,B529,SolarPV,0,1,1,0,2.0,0.0,0.15,1.0,0.03,0.0,1.0,1.0,0,0,0,0.0,0.0,0.0,0.0
319,Damsdorf,Wind | Onshore,DE,50Hertz,54.11702800454784,10.109985070666433,285.85,0.0,50Hertz,B529,WindOn,0,1,1,0,3.0,0.0,0.18,1.0,0.05,0.0,1.0,1.0,0,0,0,0.0,0.0,0.0,0.0
320,Bhkw,Biogas | Combustion Engine,DE,50Hertz,52.46912770723636,12.864156079484964,13.902000000000001,0.0,50Hertz,B530,Bio,1,1,0,0,39.0,0.1,0.9,0.9,0.08,0.06,0.4,0.4,1,6,6,6.0,0.05,0.05,0.06
321,Bhkw,Natural Gas | Combustion Engine,DE,50Hertz,52.39248814361889,13.02576598978822,19.878999999999998,0.0,50Hertz,B530,NGCT,1,0,0,0,68.0,0.58,0.86,1.0,0.08,0.12,1.0,1.0,1,1,1,8.0,0.08,0.08,0.1
322,Nea,Oil | Combustion Engine,DE,50Hertz,52.41001437614679,12.991383155963304,0.436,0.0,50Hertz,B530,Oil,1,0,0,0,110.0,0.82,0.88,1.0,0.1,0.08,1.0,1.0,1,1,1,10.0,0.06,0.06,0.08
323,Kwk Anlage,Other | Steam Turbine,DE,50Hertz,52.409694,12.904531,1.98,0.0,50Hertz,B530,Other,1,0,0,0,55.0,0.25,0.85,0.9,0.08,0.05,0.4,0.4,1,4,4,5.0,0.04,0.04,0.05
324,Anlage Eiche,Solar | PP,DE,50Hertz,52.520460940300424,12.856726415101026,107.38306100000001,0.0,50Hertz,B530,SolarPV,0,1,1,0,2.0,0.0,0.15,1.0,0.03,0.0,1.0,1.0,0,0,0,0.0,0.0,0.0,0.0
325,Glindow,Wind | Onshore,DE,50Hertz,52.5377398954231,12.887832162852579,187.9,0.0,50Hertz,B530,WindOn,0,1,1,0,3.0,0.0,0.18,1.0,0.05,0.0,1.0,1.0,0,0,0,0.0,0.0,0.0,0.0
326,Bhkw Falkensee Biomethan,Biogas | Combustion Engine,DE,50Hertz,52.563648,13.067979,0.6,0.0,50Hertz,B531,Bio,1,1,0,0,39.0,0.1,0.9,0.9,0.08,0.06,0.4,0.4,1,6,6,6.0,0.05,0.05,0.06
327,Mikrogasturbine Cagemill,Natural Gas | OCGT,DE,50Hertz,52.596997,12.977004,0.2,0.0,50Hertz,B531,NGCT,1,0,0,0,68.0,0.58,0.86,1.0,0.08,0.12,1.0,1.0,1,1,1,8.0,0.08,0.08,0.1
328,Consilium Solardach Brieselang,Solar | PP,DE,50Hertz,52.55303978991983,13.002850698758602,9.20896,0.0,50Hertz,B531,SolarPV,0,1,1,0,2.0,0.0,0.15,1.0,0.03,0.0,1.0,1.0,0,0,0,0.0,0.0,0.0,0.0
329,Hvl Bredow Zeestow,Wind | Onshore,DE,50Hertz,52.574222462686556,12.936263970149252,20.1,0.0,50Hertz,B531,WindOn,0,1,1,0,3.0,0.0,0.18,1.0,0.05,0.0,1.0,1.0,0,0,0,0.0,0.0,0.0,0.0
330,Bhkw Pal,Biogas | Combustion Engine,DE,50Hertz,53.223787295654105,12.057675903189953,8.997,0.0,50Hertz,B532,Bio,1,1,0,0,39.0,0.1,0.9,0.9,0.08,0.06,0.4,0.4,1,6,6,6.0,0.05,0.05,0.06
331,Anlage Pritzwalk Ot Steffenshagen,Solar | PP,DE,50Hertz,53.308804275490836,12.047299104782864,54.03039999999999,0.0,50Hertz,B532,SolarPV,0,1,1,0,2.0,0.0,0.15,1.0,0.03,0.0,1.0,1.0,0,0,0,0.0,0.0,0.0,0.0
332,Berge,Wind | Onshore,DE,50Hertz,53.288223063370474,11.971748159470753,143.6,0.0,50Hertz,B532,WindOn,0,1,1,0,3.0,0.0,0.18,1.0,0.05,0.0,1.0,1.0,0,0,0,0.0,0.0,0.0,0.0
333,Biogasanlage Kalkhorst,Biogas | Combustion Engine,DE,50Hertz,53.966761,11.051145,0.21,0.0,50Hertz,B537,Bio,1,1,0,0,39.0,0.1,0.9,0.9,0.08,0.06,0.4,0.4,1,6,6,6.0,0.05,0.05,0.06
334,Am Leuchtenfeld,Natural Gas | Combustion Engine,DE,50Hertz,53.93937765209388,10.850312408498237,6.519,0.0,50Hertz,B537,NGCT,1,0,0,0,68.0,0.58,0.86,1.0,0.08,0.12,1.0,1.0,1,1,1,8.0,0.08,0.08,0.1
335,Bv Grundshagen Teil,Solar | PP,DE,50Hertz,53.9595790085466,10.991473812688985,7.39476,0.0,50Hertz,B537,SolarPV,0,1,1,0,2.0,0.0,0.15,1.0,0.03,0.0,1.0,1.0,0,0,0,0.0,0.0,0.0,0.0
336,Bultwind Nr,Wind | Onshore,DE,50Hertz,54.04856659846547,10.998939207161124,19.55,0.0,50Hertz,B537,WindOn,0,1,1,0,3.0,0.0,0.18,1.0,0.05,0.0,1.0,1.0,0,0,0,0.0,0.0,0.0,0.0
337,Agenitor Bg,Biogas | Combustion Engine,DE,50Hertz,54.45724252579327,9.938572160856797,31.326,0.0,50Hertz,B538,Bio,1,1,0,0,39.0,0.1,0.9,0.9,0.08,0.06,0.4,0.4,1,6,6,6.0,0.05,0.05,0.06
338,Wasserkraftwerk,Hydro | Run-Of-River,DE,50Hertz,54.34135,9.970099,0.145,0.0,50Hertz,B538,Hydro,0,1,0,0,7.5,0.0,0.7,0.65,0.04,0.0,1.0,1.0,0,0,0,0.0,0.0,0.0,0.0
339,Bhkw Voith Kiel,Natural Gas | CCGT,DE,50Hertz,54.32766818472793,10.125742037037037,21.870000000000005,0.0,50Hertz,B538,NGCC,1,0,0,0,42.0,0.4,0.92,1.0,0.06,0.1,0.5,0.5,1,4,4,6.0,0.05,0.05,0.075
340,Bhkw,Natural Gas | Combustion Engine,DE,50Hertz,54.405148254833044,10.02516078842023,3.0726,0.0,50Hertz,B538,NGCT,1,0,0,0,68.0,0.58,0.86,1.0,0.08,0.12,1.0,1.0,1,1,1,8.0,0.08,0.08,0.1
341,Hkwh Notstromaggregat,Oil | Combustion Engine,DE,50Hertz,54.36660640228765,10.027818283391467,3.8992,0.0,50Hertz,B538,Oil,1,0,0,0,110.0,0.82,0.88,1.0,0.1,0.08,1.0,1.0,1,1,1,10.0,0.06,0.06,0.08
342,Abr,Solar | PP,DE,50Hertz,54.35587321835307,9.96079890841819,49.696439999999996,0.0,50Hertz,B538,SolarPV,0,1,1,0,2.0,0.0,0.15,1.0,0.03,0.0,1.0,1.0,0,0,0,0.0,0.0,0.0,0.0
343,Brodersby,Wind | Onshore,DE,50Hertz,54.46071355908095,9.933586419509371,440.455,0.0,50Hertz,B538,WindOn,0,1,1,0,3.0,0.0,0.18,1.0,0.05,0.0,1.0,1.0,0,0,0,0.0,0.0,0.0,0.0
344,Bga Kolochau,Biogas | Combustion Engine,DE,50Hertz,51.833013723972854,13.265801145983481,19.009,0.0,50Hertz,B550,Bio,1,1,0,0,39.0,0.1,0.9,0.9,0.08,0.06,0.4,0.4,1,6,6,6.0,0.05,0.05,0.06
345,Kwkg Anlage Kalksteinwerk Medenbach,Natural Gas | CCGT,DE,50Hertz,52.0,13.0,0.8,0.0,50Hertz,B550,NGCC,1,0,0,0,42.0,0.4,0.92,1.0,0.06,0.1,0.5,0.5,1,4,4,6.0,0.05,0.05,0.075
346,Bhkw Efen,Natural Gas | Combustion Engine,DE,50Hertz,51.75549716874135,13.206573290456431,0.7230000000000001,0.0,50Hertz,B550,NGCT,1,0,0,0,68.0,0.58,0.86,1.0,0.08,0.12,1.0,1.0,1,1,1,8.0,0.08,0.08,0.1
347,Abr,Solar | PP,DE,50Hertz,51.85525157061375,13.294327088415546,187.902447,0.0,50Hertz,B550,SolarPV,0,1,1,0,2.0,0.0,0.15,1.0,0.03,0.0,1.0,1.0,0,0,0,0.0,0.0,0.0,0.0
348,Alter Lager,Wind | Onshore,DE,50Hertz,51.902688229299244,13.315608743668935,1071.7,0.0,50Hertz,B550,WindOn,0,1,1,0,3.0,0.0,0.18,1.0,0.05,0.0,1.0,1.0,0,0,0,0.0,0.0,0.0,0.0
349,Bga Forst,Biogas | Combustion Engine,DE,50Hertz,51.757088266450694,14.550307653776068,4.939,0.0,50Hertz,B56,Bio,1,1,0,0,39.0,0.1,0.9,0.9,0.08,0.06,0.4,0.4,1,6,6,6.0,0.05,0.05,0.06
350,Cottbus,Lignite | OCGT,DE,50Hertz,51.83526260614064,14.45266890260812,3029.0,0.0,50Hertz,B56,Coal,1,0,0,0,36.0,0.95,0.9,0.92,0.08,0.08,0.25,0.25,1,8,8,9.0,0.04,0.04,0.05
351,Wasserkraftwerk Gross Gastrose,Hydro | Run-Of-River,DE,50Hertz,51.834025704845814,14.579938383259911,2.27,0.0,50Hertz,B56,Hydro,0,1,0,0,7.5,0.0,0.7,0.65,0.04,0.0,1.0,1.0,0,0,0,0.0,0.0,0.0,0.0
352,Bkw Deponie Cottbus Saspow,Waste | Combustion Engine,DE,50Hertz,51.83356625958481,14.465150982352041,58.817,0.0,50Hertz,B56,MSW,1,1,0,0,32.0,0.08,0.9,0.92,0.08,0.06,0.35,0.35,1,6,6,5.0,0.05,0.05,0.06
353,Cottbus,Natural Gas | CCGT,DE,50Hertz,51.7607335,14.369352,98.481,0.0,50Hertz,B56,NGCC,1,0,0,0,42.0,0.4,0.92,1.0,0.06,0.1,0.5,0.5,1,4,4,6.0,0.05,0.05,0.075
354,Bhkw Modul,Natural Gas | Combustion Engine,DE,50Hertz,51.74671806451612,14.325295010752686,1.116,0.0,50Hertz,B56,NGCT,1,0,0,0,68.0,0.58,0.86,1.0,0.08,0.12,1.0,1.0,1,1,1,8.0,0.08,0.08,0.1
355,Nea Evc,Oil | Combustion Engine,DE,50Hertz,51.75289070941112,14.349806326912494,1.4536,0.0,50Hertz,B56,Oil,1,0,0,0,110.0,0.82,0.88,1.0,0.1,0.08,1.0,1.0,1,1,1,10.0,0.06,0.06,0.08
356,Ailinger,Solar | PP,DE,50Hertz,51.76072030028706,14.497511807983072,281.80597,0.0,50Hertz,B56,SolarPV,0,1,1,0,2.0,0.0,0.15,1.0,0.03,0.0,1.0,1.0,0,0,0,0.0,0.0,0.0,0.0
357,Barenbruck,Wind | Onshore,DE,50Hertz,51.79181003901951,14.537362431715858,199.9,0.0,50Hertz,B56,WindOn,0,1,1,0,3.0,0.0,0.18,1.0,0.05,0.0,1.0,1.0,0,0,0,0.0,0.0,0.0,0.0
358,Bga Alt,Biogas | Combustion Engine,DE,50Hertz,51.39769109901793,11.709433214024836,12.321,0.0,50Hertz,B566,Bio,1,1,0,0,39.0,0.1,0.9,0.9,0.08,0.06,0.4,0.4,1,6,6,6.0,0.05,0.05,0.06
359,Grubenheizkraftwerk Amsdorf,Lignite | Steam Turbine,DE,50Hertz,51.46316,11.720459,45.189,0.0,50Hertz,B566,Coal,1,0,0,0,36.0,0.95,0.9,0.92,0.08,0.08,0.25,0.25,1,8,8,9.0,0.04,0.04,0.05
360,Dampferzeuger Mit Ts,Waste | Steam Turbine,DE,50Hertz,51.44034416744186,11.739975781395348,10.75,0.0,50Hertz,B566,MSW,1,1,0,0,32.0,0.08,0.9,0.92,0.08,0.06,0.35,0.35,1,6,6,5.0,0.05,0.05,0.06
361,Halle Trotha,Natural Gas | CCGT,DE,50Hertz,51.523806,11.943448,66.991,0.0,50Hertz,B566,NGCC,1,0,0,0,42.0,0.4,0.92,1.0,0.06,0.1,0.5,0.5,1,4,4,6.0,0.05,0.05,0.075
362,Bhkw Klinikum,Natural Gas | Combustion Engine,DE,50Hertz,51.50135179151031,11.88988691579019,1.32443,0.0,50Hertz,B566,NGCT,1,0,0,0,68.0,0.58,0.86,1.0,0.08,0.12,1.0,1.0,1,1,1,8.0,0.08,0.08,0.1
363,Nea Mlu Pharmazie,Oil | Combustion Engine,DE,50Hertz,51.49703620689655,11.942998931034483,0.87,0.0,50Hertz,B566,Oil,1,0,0,0,110.0,0.82,0.88,1.0,0.1,0.08,1.0,1.0,1,1,1,10.0,0.06,0.06,0.08
364,Abr,Solar | PP,DE,50Hertz,51.429116861954604,11.802203027117349,267.995329,0.0,50Hertz,B566,SolarPV,0,1,1,0,2.0,0.0,0.15,1.0,0.03,0.0,1.0,1.0,0,0,0,0.0,0.0,0.0,0.0
365,Bee Wansleben Gmbh Co Kg,Wind | Onshore,DE,50Hertz,51.41837519929522,11.767980729966066,383.1,0.0,50Hertz,B566,WindOn,0,1,1,0,3.0,0.0,0.18,1.0,0.05,0.0,1.0,1.0,0,0,0,0.0,0.0,0.0,0.0
366,Bga Blindow,Biogas | Combustion Engine,DE,50Hertz,53.31887633598653,14.003708376717002,43.972,0.0,50Hertz,B568,Bio,1,1,0,0,39.0,0.1,0.9,0.9,0.08,0.06,0.4,0.4,1,6,6,6.0,0.05,0.05,0.06
367,Hybrid Enertrag Prenzlau,Hydrogen Storage | Store,DE,50Hertz,53.3167,13.7833,0.5,0.0,50Hertz,B568,Hydro,0,1,0,0,7.5,0.0,0.7,0.65,0.04,0.0,1.0,1.0,0,0,0,0.0,0.0,0.0,0.0
368,Bhkw Mva,Waste | Combustion Engine,DE,50Hertz,53.36549833563615,13.81200438802533,1.737,0.0,50Hertz,B568,MSW,1,1,0,0,32.0,0.08,0.9,0.92,0.08,0.06,0.35,0.35,1,6,6,5.0,0.05,0.05,0.06
369,Bhkw Heizhaus Dr Bahr Str,Natural Gas | Combustion Engine,DE,50Hertz,53.31706680030655,13.85897912393256,0.9133999999999998,0.0,50Hertz,B568,NGCT,1,0,0,0,68.0,0.58,0.86,1.0,0.08,0.12,1.0,1.0,1,1,1,8.0,0.08,0.08,0.1
370,Abr,Solar | PP,DE,50Hertz,53.2527682063877,13.768708475430126,316.23066500000004,0.0,50Hertz,B568,SolarPV,0,1,1,0,2.0,0.0,0.15,1.0,0.03,0.0,1.0,1.0,0,0,0,0.0,0.0,0.0,0.0
371,Basedow,Wind | Onshore,DE,50Hertz,53.31246404249616,13.95966326036533,1261.055,0.0,50Hertz,B568,WindOn,0,1,1,0,3.0,0.0,0.18,1.0,0.05,0.0,1.0,1.0,0,0,0,0.0,0.0,0.0,0.0
372,Agrar Dienstleistung Gmbh,Biogas | Combustion Engine,DE,50Hertz,53.6129143005347,11.271541295163974,84.16,0.0,50Hertz,B569,Bio,1,1,0,0,39.0,0.1,0.9,0.9,0.08,0.06,0.4,0.4,1,6,6,6.0,0.05,0.05,0.06
373,Bhkw Bioenergie Hornstorf Gmbh,Waste | Combustion Engine,DE,50Hertz,53.7665450575198,11.385470636939313,18.95,0.0,50Hertz,B569,MSW,1,1,0,0,32.0,0.08,0.9,0.92,0.08,0.06,0.35,0.35,1,6,6,5.0,0.05,0.05,0.06
374,Bhkw,Natural Gas | CCGT,DE,50Hertz,53.595925363356,11.392152351276971,93.385,0.0,50Hertz,B569,NGCC,1,0,0,0,42.0,0.4,0.92,1.0,0.06,0.1,0.5,0.5,1,4,4,6.0,0.05,0.05,0.075
375,Bad Kleinen,Natural Gas | Combustion Engine,DE,50Hertz,53.70401184678996,11.341086820268943,12.3223,0.0,50Hertz,B569,NGCT,1,0,0,0,68.0,0.58,0.86,1.0,0.08,0.12,1.0,1.0,1,1,1,8.0,0.08,0.08,0.1
376,Nea Sieben Seen Center Schwerin,Oil | Combustion Engine,DE,50Hertz,53.61637343165467,11.415915446043165,1.3900000000000001,0.0,50Hertz,B569,Oil,1,0,0,0,110.0,0.82,0.88,1.0,0.1,0.08,1.0,1.0,1,1,1,10.0,0.06,0.06,0.08
377,Ab Sonne,Solar | PP,DE,50Hertz,53.60836585553851,11.335512501752321,342.344325,0.0,50Hertz,B569,SolarPV,0,1,1,0,2.0,0.0,0.15,1.0,0.03,0.0,1.0,1.0,0,0,0,0.0,0.0,0.0,0.0
378,Abo Energy Wp Karenz,Wind | Onshore,DE,50Hertz,53.62798655159291,11.31633741084034,407.275,0.0,50Hertz,B569,WindOn,0,1,1,0,3.0,0.0,0.18,1.0,0.05,0.0,1.0,1.0,0,0,0,0.0,0.0,0.0,0.0
379,Bhkw Asn,Biogas | Combustion Engine,DE,50Hertz,52.596990161634096,13.299677394316163,9.008000000000001,0.0,50Hertz,B572,Bio,1,1,0,0,39.0,0.1,0.9,0.9,0.08,0.06,0.4,0.4,1,6,6,6.0,0.05,0.05,0.06
380,Oberhavel,Lignite | Steam Turbine,DE,50Hertz,52.578108,13.215608,200.0,0.0,50Hertz,B572,Coal,1,0,0,0,36.0,0.95,0.9,0.92,0.08,0.08,0.25,0.25,1,8,8,9.0,0.04,0.04,0.05
381,Bhkw,Natural Gas | CCGT,DE,50Hertz,52.551152,13.113242,0.3495,0.0,50Hertz,B572,NGCC,1,0,0,0,42.0,0.4,0.92,1.0,0.06,0.1,0.5,0.5,1,4,4,6.0,0.05,0.05,0.075
382,Abr,Natural Gas | Combustion Engine,DE,50Hertz,52.572600187939244,13.243097582123927,11.8102,0.0,50Hertz,B572,NGCT,1,0,0,0,68.0,0.58,0.86,1.0,0.08,0.12,1.0,1.0,1,1,1,8.0,0.08,0.08,0.1
383,Nea Dallgow,Oil | Combustion Engine,DE,50Hertz,52.53152,13.08518,0.128,0.0,50Hertz,B572,Oil,1,0,0,0,110.0,0.82,0.88,1.0,0.1,0.08,1.0,1.0,1,1,1,10.0,0.06,0.06,0.08
384,Abr,Solar | PP,DE,50Hertz,52.5428070744927,13.115706442069701,37.136655000000005,0.0,50Hertz,B572,SolarPV,0,1,1,0,2.0,0.0,0.15,1.0,0.03,0.0,1.0,1.0,0,0,0,0.0,0.0,0.0,0.0
385,Bhkw Hornow,Biogas | Combustion Engine,DE,50Hertz,51.618185052175996,14.473929337340707,4.159000000000001,0.0,50Hertz,B573,Bio,1,1,0,0,39.0,0.1,0.9,0.9,0.08,0.06,0.4,0.4,1,6,6,6.0,0.05,0.05,0.06
386,Nh,Hydro | Run-Of-River,DE,50Hertz,51.66114501613627,14.391839791125058,1.1155,0.0,50Hertz,B573,Hydro,0,1,0,0,7.5,0.0,0.7,0.65,0.04,0.0,1.0,1.0,0,0,0,0.0,0.0,0.0,0.0
387,Bhkw,Natural Gas | Combustion Engine,DE,50Hertz,51.623529,14.591607,0.465,0.0,50Hertz,B573,NGCT,1,0,0,0,68.0,0.58,0.86,1.0,0.08,0.12,1.0,1.0,1,1,1,8.0,0.08,0.08,0.1
388,Nea Doebern,Oil | Combustion Engine,DE,50Hertz,51.613585,14.590997,0.28,0.0,50Hertz,B573,Oil,1,0,0,0,110.0,0.82,0.88,1.0,0.1,0.08,1.0,1.0,1,1,1,10.0,0.06,0.06,0.08
389,Abr,Solar | PP,DE,50Hertz,51.66174566276839,14.569644496774712,201.516129,0.0,50Hertz,B573,SolarPV,0,1,1,0,2.0,0.0,0.15,1.0,0.03,0.0,1.0,1.0,0,0,0,0.0,0.0,0.0,0.0
390,Cee Windpark Domsdorf,Wind | Onshore,DE,50Hertz,51.60470819287834,14.615469586997571,185.35,0.0,50Hertz,B573,WindOn,0,1,1,0,3.0,0.0,0.18,1.0,0.05,0.0,1.0,1.0,0,0,0,0.0,0.0,0.0,0.0
391,Bhkw,Biogas | Combustion Engine,DE,50Hertz,52.41796957445044,13.325490727084198,4.822,0.0,50Hertz,B574,Bio,1,1,0,0,39.0,0.1,0.9,0.9,0.08,0.06,0.4,0.4,1,6,6,6.0,0.05,0.05,0.06
392,Dfc Eu,Natural Gas | CHP,DE,50Hertz,52.4234709408826,13.309652863447127,300.25,0.0,50Hertz,B574,NGCC,1,0,0,0,42.0,0.4,0.92,1.0,0.06,0.1,0.5,0.5,1,4,4,6.0,0.05,0.05,0.075
393,Abr,Natural Gas | Combustion Engine,DE,50Hertz,52.464030457735696,13.368728212622926,18.650905,0.0,50Hertz,B574,NGCT,1,0,0,0,68.0,0.58,0.86,1.0,0.08,0.12,1.0,1.0,1,1,1,8.0,0.08,0.08,0.1
394,Bhkw Berlin,Oil | Combustion Engine,DE,50Hertz,52.48673577711079,13.370585908549469,36.882600000000004,0.0,50Hertz,B574,Oil,1,0,0,0,110.0,0.82,0.88,1.0,0.1,0.08,1.0,1.0,1,1,1,10.0,0.06,0.06,0.08
395,Abr,Solar | PP,DE,50Hertz,52.4262918397605,13.348933832523185,23.467965,0.0,50Hertz,B574,SolarPV,0,1,1,0,2.0,0.0,0.15,1.0,0.03,0.0,1.0,1.0,0,0,0,0.0,0.0,0.0,0.0
396,Bhkw Glienicke,Biogas | Combustion Engine,DE,50Hertz,52.6291,13.224149090909092,2.75,0.0,50Hertz,B575,Bio,1,1,0,0,39.0,0.1,0.9,0.9,0.08,0.06,0.4,0.4,1,6,6,6.0,0.05,0.05,0.06
397,Bhkw In Der Ckd,Natural Gas | Combustion Engine,DE,50Hertz,52.6199197708466,13.111674830044558,1.571,0.0,50Hertz,B575,NGCT,1,0,0,0,68.0,0.58,0.86,1.0,0.08,0.12,1.0,1.0,1,1,1,8.0,0.08,0.08,0.1
398,Anlage,Solar | PP,DE,50Hertz,52.643665931449725,13.155279062817725,3.3283599999999995,0.0,50Hertz,B575,SolarPV,0,1,1,0,2.0,0.0,0.15,1.0,0.03,0.0,1.0,1.0,0,0,0,0.0,0.0,0.0,0.0
399,Berlin Mitte,Natural Gas | CCGT,DE,50Hertz,52.511060258555126,13.420685536121674,789.0,0.0,50Hertz,B580,NGCC,1,0,0,0,42.0,0.4,0.92,1.0,0.06,0.1,0.5,0.5,1,4,4,6.0,0.05,0.05,0.075
400,Behmstrasse,Natural Gas | Combustion Engine,DE,50Hertz,52.53487797543175,13.433865652703536,3.8912,0.0,50Hertz,B580,NGCT,1,0,0,0,68.0,0.58,0.86,1.0,0.08,0.12,1.0,1.0,1,1,1,8.0,0.08,0.08,0.1
401,Mitte Notstromaggregat,Oil | Combustion Engine,DE,50Hertz,52.512139793051055,13.433688963026743,15.7952,0.0,50Hertz,B580,Oil,1,0,0,0,110.0,0.82,0.88,1.0,0.1,0.08,1.0,1.0,1,1,1,10.0,0.06,0.06,0.08
402,Mitte,Other | Steam Turbine,DE,50Hertz,52.510133,13.420356,116.0,0.0,50Hertz,B580,Other,1,0,0,0,55.0,0.25,0.85,0.9,0.08,0.05,0.4,0.4,1,4,4,5.0,0.04,0.04,0.05
403,Atz Sporthalle,Solar | PP,DE,50Hertz,52.53005506480662,13.465010899671606,5.13713,0.0,50Hertz,B580,SolarPV,0,1,1,0,2.0,0.0,0.15,1.0,0.03,0.0,1.0,1.0,0,0,0,0.0,0.0,0.0,0.0
404,Bga,Biogas | OCGT,DE,50Hertz,51.56293754255081,11.421192608471074,35.816,0.0,50Hertz,B597,Bio,1,1,0,0,39.0,0.1,0.9,0.9,0.08,0.06,0.4,0.4,1,6,6,6.0,0.05,0.05,0.06
405,Konnern Generator,Lignite | Steam Turbine,DE,50Hertz,51.697449000000006,11.7576735,17.6,0.0,50Hertz,B597,Coal,1,0,0,0,36.0,0.95,0.9,0.92,0.08,0.08,0.25,0.25,1,8,8,9.0,0.04,0.04,0.05
406,Wasserkraft Artern,Hydro | Run-Of-River,DE,50Hertz,51.64061157051282,11.627776751508295,5.304,0.0,50Hertz,B597,Hydro,0,1,0,0,7.5,0.0,0.7,0.65,0.04,0.0,1.0,1.0,0,0,0,0.0,0.0,0.0,0.0
407,Mullverbrennungsanlage Eew Stavenhagen Gmbh Co Kg,Waste | Steam Turbine,DE,50Hertz,51.66203318987341,11.39732046835443,15.8,0.0,50Hertz,B597,MSW,1,1,0,0,32.0,0.08,0.9,0.92,0.08,0.06,0.35,0.35,1,6,6,5.0,0.05,0.05,0.06
408,Ballenstedt Bhkw,Natural Gas | Combustion Engine,DE,50Hertz,51.62564419295693,11.450710892420197,24.056559999999998,0.0,50Hertz,B597,NGCT,1,0,0,0,68.0,0.58,0.86,1.0,0.08,0.12,1.0,1.0,1,1,1,8.0,0.08,0.08,0.1
409,Entega Aggregat Eisleben,Oil | Combustion Engine,DE,50Hertz,51.55180194249201,11.610813118210862,6.26,0.0,50Hertz,B597,Oil,1,0,0,0,110.0,0.82,0.88,1.0,0.1,0.08,1.0,1.0,1,1,1,10.0,0.06,0.06,0.08
410,Abr,Solar | PP,DE,50Hertz,51.575282118791435,11.384548362273875,492.619399,0.0,50Hertz,B597,SolarPV,0,1,1,0,2.0,0.0,0.15,1.0,0.03,0.0,1.0,1.0,0,0,0,0.0,0.0,0.0,0.0
411,Arnstedt,Wind | Onshore,DE,50Hertz,51.63273706690133,11.555237269977868,1003.986,0.0,50Hertz,B597,WindOn,0,1,1,0,3.0,0.0,0.18,1.0,0.05,0.0,1.0,1.0,0,0,0,0.0,0.0,0.0,0.0
412,Bga Altranft,Biogas | Combustion Engine,DE,50Hertz,52.81266896185607,13.80274102394715,31.486,0.0,50Hertz,B6,Bio,1,1,0,0,39.0,0.1,0.9,0.9,0.08,0.06,0.4,0.4,1,6,6,6.0,0.05,0.05,0.06
413,Bhkw,Natural Gas | Combustion Engine,DE,50Hertz,52.85750796301296,13.861169079913608,3.704,0.0,50Hertz,B6,NGCT,1,0,0,0,68.0,0.58,0.86,1.0,0.08,0.12,1.0,1.0,1,1,1,8.0,0.08,0.08,0.1
414,Netzersatzanlage Haus Wfk,Oil | Combustion Engine,DE,50Hertz,52.827716,13.790590999999997,1.08,0.0,50Hertz,B6,Oil,1,0,0,0,110.0,0.82,0.88,1.0,0.1,0.08,1.0,1.0,1,1,1,10.0,0.06,0.06,0.08
415,Ahrensfelde,Solar | PP,DE,50Hertz,52.67081899533141,13.729529025881055,285.09348500000004,0.0,50Hertz,B6,SolarPV,0,1,1,0,2.0,0.0,0.15,1.0,0.03,0.0,1.0,1.0,0,0,0,0.0,0.0,0.0,0.0
416,Altlandsberg,Wind | Onshore,DE,50Hertz,52.6838090344053,13.781347341282618,667.775,0.0,50Hertz,B6,WindOn,0,1,1,0,3.0,0.0,0.18,1.0,0.05,0.0,1.0,1.0,0,0,0,0.0,0.0,0.0,0.0
417,Bhkw Nord,Biogas | Combustion Engine,DE,50Hertz,51.134,12.487,0.396,0.0,50Hertz,B601,Bio,1,1,0,0,39.0,0.1,0.9,0.9,0.08,0.06,0.4,0.4,1,6,6,6.0,0.05,0.05,0.06
418,Bhkw Gg,Natural Gas | Combustion Engine,DE,50Hertz,51.120549077044025,12.494808185272538,3.816,0.0,50Hertz,B601,NGCT,1,0,0,0,68.0,0.58,0.86,1.0,0.08,0.12,1.0,1.0,1,1,1,8.0,0.08,0.08,0.1
419,Alltec Pv,Solar | PP,DE,50Hertz,51.13063337661389,12.488645393187852,21.603465,0.0,50Hertz,B601,SolarPV,0,1,1,0,2.0,0.0,0.15,1.0,0.03,0.0,1.0,1.0,0,0,0,0.0,0.0,0.0,0.0
420,Bga Dittmannsdorfer Milch Gmbh,Biogas | Combustion Engine,DE,50Hertz,51.21740165116992,12.718947248390723,9.786999999999999,0.0,50Hertz,B602,Bio,1,1,0,0,39.0,0.1,0.9,0.9,0.08,0.06,0.4,0.4,1,6,6,6.0,0.05,0.05,0.06
421,Kwk Trebsen,Lignite | Steam Turbine,DE,50Hertz,51.280072999999994,12.767234,0.865,0.0,50Hertz,B602,Coal,1,0,0,0,36.0,0.95,0.9,0.92,0.08,0.08,0.25,0.25,1,8,8,9.0,0.04,0.04,0.05
422,Wkw Golzern,Hydro | Run-Of-River,DE,50Hertz,51.24395813513514,12.760802729729729,1.8499999999999999,0.0,50Hertz,B602,Hydro,0,1,0,0,7.5,0.0,0.7,0.65,0.04,0.0,1.0,1.0,0,0,0,0.0,0.0,0.0,0.0
423,Gud Anlage Dt,Natural Gas | CHP,DE,50Hertz,51.280073,12.767234,10.457,0.0,50Hertz,B602,NGCC,1,0,0,0,42.0,0.4,0.92,1.0,0.06,0.1,0.5,0.5,1,4,4,6.0,0.05,0.05,0.075
424,Bhkw Kva Kh Grimma,Natural Gas | Combustion Engine,DE,50Hertz,51.16916392442788,12.606698788185204,1.879,0.0,50Hertz,B602,NGCT,1,0,0,0,68.0,0.58,0.86,1.0,0.08,0.12,1.0,1.0,1,1,1,8.0,0.08,0.08,0.1
425,Notstromaggregat,Oil | Combustion Engine,DE,50Hertz,51.280073,12.767234,0.584,0.0,50Hertz,B602,Oil,1,0,0,0,110.0,0.82,0.88,1.0,0.1,0.08,1.0,1.0,1,1,1,10.0,0.06,0.06,0.08
426,Ajax Naunhof,Solar | PP,DE,50Hertz,51.21699784820622,12.681479962970526,50.89932,0.0,50Hertz,B602,SolarPV,0,1,1,0,2.0,0.0,0.15,1.0,0.03,0.0,1.0,1.0,0,0,0,0.0,0.0,0.0,0.0
427,Butterberg,Wind | Onshore,DE,50Hertz,51.22765826535694,12.89476406945213,144.56,0.0,50Hertz,B602,WindOn,0,1,1,0,3.0,0.0,0.18,1.0,0.05,0.0,1.0,1.0,0,0,0,0.0,0.0,0.0,0.0
428,Bga Aus,Biogas | Combustion Engine,DE,50Hertz,52.728448885958066,11.950890660688138,177.803,0.0,50Hertz,B607,Bio,1,1,0,0,39.0,0.1,0.9,0.9,0.08,0.06,0.4,0.4,1,6,6,6.0,0.05,0.05,0.06
429,Bhkw,Natural Gas | Combustion Engine,DE,50Hertz,52.602560528436236,11.844511674338477,21.768,0.0,50Hertz,B607,NGCT,1,0,0,0,68.0,0.58,0.86,1.0,0.08,0.12,1.0,1.0,1,1,1,8.0,0.08,0.08,0.1
430,Abr,Solar | PP,DE,50Hertz,52.7155280106648,11.83567178097174,308.419416,0.0,50Hertz,B607,SolarPV,0,1,1,0,2.0,0.0,0.15,1.0,0.03,0.0,1.0,1.0,0,0,0,0.0,0.0,0.0,0.0
431,Alter Postweg Osterburger Weg,Wind | Onshore,DE,50Hertz,52.72709102917143,11.766830253557382,835.235,0.0,50Hertz,B607,WindOn,0,1,1,0,3.0,0.0,0.18,1.0,0.05,0.0,1.0,1.0,0,0,0,0.0,0.0,0.0,0.0
432,Anlage Bhkw,Biogas | Combustion Engine,DE,50Hertz,54.208217846184894,9.676975960156518,32.201,0.0,50Hertz,B610,Bio,1,1,0,0,39.0,0.1,0.9,0.9,0.08,0.06,0.4,0.4,1,6,6,6.0,0.05,0.05,0.06
433,Bhkw Rd,Natural Gas | Combustion Engine,DE,50Hertz,54.297088824427476,9.64798479389313,1.572,0.0,50Hertz,B610,NGCT,1,0,0,0,68.0,0.58,0.86,1.0,0.08,0.12,1.0,1.0,1,1,1,8.0,0.08,0.08,0.1
434,Lidl Wasbek Nea,Oil | Combustion Engine,DE,50Hertz,54.24492579562044,9.719400467153285,2.74,0.0,50Hertz,B610,Oil,1,0,0,0,110.0,0.82,0.88,1.0,0.1,0.08,1.0,1.0,1,1,1,10.0,0.06,0.06,0.08
435,Abr,Solar | PP,DE,50Hertz,54.131656242420675,9.852754438226606,137.068524,0.0,50Hertz,B610,SolarPV,0,1,1,0,2.0,0.0,0.15,1.0,0.03,0.0,1.0,1.0,0,0,0,0.0,0.0,0.0,0.0
436,Bokel Ellerdorf Erweiterung,Wind | Onshore,DE,50Hertz,54.17185062408231,9.745503142335153,446.095,0.0,50Hertz,B610,WindOn,0,1,1,0,3.0,0.0,0.18,1.0,0.05,0.0,1.0,1.0,0,0,0,0.0,0.0,0.0,0.0
437,Bba Modul,Biogas | Combustion Engine,DE,50Hertz,54.367063312314166,9.751550926660059,16.144000000000002,0.0,50Hertz,B611,Bio,1,1,0,0,39.0,0.1,0.9,0.9,0.08,0.06,0.4,0.4,1,6,6,6.0,0.05,0.05,0.06
438,Bhkw Budelsdorf,Natural Gas | Combustion Engine,DE,50Hertz,54.32011,9.701331,0.42,0.0,50Hertz,B611,NGCT,1,0,0,0,68.0,0.58,0.86,1.0,0.08,0.12,1.0,1.0,1,1,1,8.0,0.08,0.08,0.1
439,Gasturbinenkraftwerk Audorf,Oil | OCGT,DE,50Hertz,54.2907323752495,9.722823381237525,90.18,0.0,50Hertz,B611,Oil,1,0,0,0,110.0,0.82,0.88,1.0,0.1,0.08,1.0,1.0,1,1,1,10.0,0.06,0.06,0.08
440,Bbsri,Solar | PP,DE,50Hertz,54.31461210440094,9.76789460258731,171.056941,0.0,50Hertz,B611,SolarPV,0,1,1,0,2.0,0.0,0.15,1.0,0.03,0.0,1.0,1.0,0,0,0,0.0,0.0,0.0,0.0
441,Owschlag,Wind | Onshore,DE,50Hertz,54.341311921856644,9.761296588719155,85.1,0.0,50Hertz,B611,WindOn,0,1,1,0,3.0,0.0,0.18,1.0,0.05,0.0,1.0,1.0,0,0,0,0.0,0.0,0.0,0.0
442,Bga Friedland,Biogas | Combustion Engine,DE,50Hertz,53.775008661063225,13.619604386247515,25.639,0.0,50Hertz,B628,Bio,1,1,0,0,39.0,0.1,0.9,0.9,0.08,0.06,0.4,0.4,1,6,6,6.0,0.05,0.05,0.06
443,Kesselhaus,Natural Gas | Steam Turbine,DE,50Hertz,53.854372,13.709494,15.0,0.0,50Hertz,B628,NGCC,1,0,0,0,42.0,0.4,0.92,1.0,0.06,0.1,0.5,0.5,1,4,4,6.0,0.05,0.05,0.075
444,Anklam,Natural Gas | Combustion Engine,DE,50Hertz,53.82119879963571,13.574948489981786,0.5489999999999999,0.0,50Hertz,B628,NGCT,1,0,0,0,68.0,0.58,0.86,1.0,0.08,0.12,1.0,1.0,1,1,1,8.0,0.08,0.08,0.1
445,Pasm Nea Anklam Eckstr,Oil | Combustion Engine,DE,50Hertz,53.84981599999999,13.691196,0.18,0.0,50Hertz,B628,Oil,1,0,0,0,110.0,0.82,0.88,1.0,0.1,0.08,1.0,1.0,1,1,1,10.0,0.06,0.06,0.08
446,Abr,Solar | PP,DE,50Hertz,53.77708524227316,13.651327855021915,176.41331,0.0,50Hertz,B628,SolarPV,0,1,1,0,2.0,0.0,0.15,1.0,0.03,0.0,1.0,1.0,0,0,0,0.0,0.0,0.0,0.0
447,Bartow Pfalz,Wind | Onshore,DE,50Hertz,53.83344235298365,13.521868682692716,588.625,0.0,50Hertz,B628,WindOn,0,1,1,0,3.0,0.0,0.18,1.0,0.05,0.0,1.0,1.0,0,0,0,0.0,0.0,0.0,0.0
448,Abr,Biogas | OCGT,DE,50Hertz,51.67478572444532,12.93819804355445,35.381,0.0,50Hertz,B629,Bio,1,1,0,0,39.0,0.1,0.9,0.9,0.08,0.06,0.4,0.4,1,6,6,6.0,0.05,0.05,0.06
449,Bad Schmiedeberg Kurmittelhaus,Natural Gas | Combustion Engine,DE,50Hertz,51.851584308397186,12.665908715787891,6.657,0.0,50Hertz,B629,NGCT,1,0,0,0,68.0,0.58,0.86,1.0,0.08,0.12,1.0,1.0,1,1,1,8.0,0.08,0.08,0.1
450,Notstromaggregat,Oil | PP,DE,50Hertz,51.64180190909091,12.91673172727273,0.6599999999999999,0.0,50Hertz,B629,Oil,1,0,0,0,110.0,0.82,0.88,1.0,0.1,0.08,1.0,1.0,1,1,1,10.0,0.06,0.06,0.08
451,Abr,Solar | PP,DE,50Hertz,51.66716666982275,12.998800666738326,297.44304999999997,0.0,50Hertz,B629,SolarPV,0,1,1,0,2.0,0.0,0.15,1.0,0.03,0.0,1.0,1.0,0,0,0,0.0,0.0,0.0,0.0
452,Bartelt Windpark Prettin Gmbh Co Kg,Wind | Onshore,DE,50Hertz,51.90047793486504,12.846604582219838,689.645,0.0,50Hertz,B629,WindOn,0,1,1,0,3.0,0.0,0.18,1.0,0.05,0.0,1.0,1.0,0,0,0,0.0,0.0,0.0,0.0
453,Abt Gmbh,Biogas | Combustion Engine,DE,50Hertz,52.35750153521478,12.436636456931957,36.036,0.0,50Hertz,B630,Bio,1,1,0,0,39.0,0.1,0.9,0.9,0.08,0.06,0.4,0.4,1,6,6,6.0,0.05,0.05,0.06
454,Bga Demsin Mva Bhkw,Waste | Combustion Engine,DE,50Hertz,52.52816868695935,12.356363269805327,61.385000000000005,0.0,50Hertz,B630,MSW,1,1,0,0,32.0,0.08,0.9,0.92,0.08,0.06,0.35,0.35,1,6,6,5.0,0.05,0.05,0.06
455,Bhkw,Natural Gas | CHP,DE,50Hertz,52.400229562098424,12.439794109939687,213.226,0.0,50Hertz,B630,NGCC,1,0,0,0,42.0,0.4,0.92,1.0,0.06,0.1,0.5,0.5,1,4,4,6.0,0.05,0.05,0.075
456,Bahnhofspassage,Natural Gas | Combustion Engine,DE,50Hertz,52.432583664098615,12.416324478831903,13.629,0.0,50Hertz,B630,NGCT,1,0,0,0,68.0,0.58,0.86,1.0,0.08,0.12,1.0,1.0,1,1,1,8.0,0.08,0.08,0.1
457,Erge,Oil | Combustion Engine,DE,50Hertz,52.45601370731707,12.420651036585365,3.2800000000000002,0.0,50Hertz,B630,Oil,1,0,0,0,110.0,0.82,0.88,1.0,0.1,0.08,1.0,1.0,1,1,1,10.0,0.06,0.06,0.08
458,Abr,Solar | PP,DE,50Hertz,52.41600636824085,12.425390222343598,595.090883,0.0,50Hertz,B630,SolarPV,0,1,1,0,2.0,0.0,0.15,1.0,0.03,0.0,1.0,1.0,0,0,0,0.0,0.0,0.0,0.0
459,Buckwitz Vindpark De,Wind | Onshore,DE,50Hertz,52.29379277101463,12.506442804219615,224.665,0.0,50Hertz,B630,WindOn,0,1,1,0,3.0,0.0,0.18,1.0,0.05,0.0,1.0,1.0,0,0,0,0.0,0.0,0.0,0.0
460,Averkamp Bhkw,Biogas | Combustion Engine,DE,50Hertz,52.488331519167694,14.261671818567109,46.954,0.0,50Hertz,B636,Bio,1,1,0,0,39.0,0.1,0.9,0.9,0.08,0.06,0.4,0.4,1,6,6,6.0,0.05,0.05,0.06
461,Abr,Waste | PP,DE,50Hertz,52.270445,14.132759,5.5,0.0,50Hertz,B636,MSW,1,1,0,0,32.0,0.08,0.9,0.92,0.08,0.06,0.35,0.35,1,6,6,5.0,0.05,0.05,0.06
462,Bhkw Modul,Natural Gas | CCGT,DE,50Hertz,52.408974091436875,14.38198826850508,1.378,0.0,50Hertz,B636,NGCC,1,0,0,0,42.0,0.4,0.92,1.0,0.06,0.1,0.5,0.5,1,4,4,6.0,0.05,0.05,0.075
463,Bhkw,Natural Gas | Combustion Engine,DE,50Hertz,52.449970262950075,14.259049529801636,10.637,0.0,50Hertz,B636,NGCT,1,0,0,0,68.0,0.58,0.86,1.0,0.08,0.12,1.0,1.0,1,1,1,8.0,0.08,0.08,0.1
464,Nea Kva,Oil | Combustion Engine,DE,50Hertz,52.285219,14.064228,1.0,0.0,50Hertz,B636,Oil,1,0,0,0,110.0,0.82,0.88,1.0,0.1,0.08,1.0,1.0,1,1,1,10.0,0.06,0.06,0.08
465,Abr,Solar | PP,DE,50Hertz,52.569773797052044,14.230049877868444,1233.112968,0.0,50Hertz,B636,SolarPV,0,1,1,0,2.0,0.0,0.15,1.0,0.03,0.0,1.0,1.0,0,0,0,0.0,0.0,0.0,0.0
466,Alt Mahlisch,Wind | Onshore,DE,50Hertz,52.4858116115914,14.289084587306846,935.78,0.0,50Hertz,B636,WindOn,0,1,1,0,3.0,0.0,0.18,1.0,0.05,0.0,1.0,1.0,0,0,0,0.0,0.0,0.0,0.0
467,Bhkw Brauereihof,Biogas | Combustion Engine,DE,50Hertz,52.470495729729734,13.190988257400257,1.554,0.0,50Hertz,B651,Bio,1,1,0,0,39.0,0.1,0.9,0.9,0.08,0.06,0.4,0.4,1,6,6,6.0,0.05,0.05,0.06
468,Reuter West,Hard Coal | Steam Turbine,DE,50Hertz,52.53207166666666,13.241943999999997,688.0,0.0,50Hertz,B651,Coal,1,0,0,0,36.0,0.95,0.9,0.92,0.08,0.08,0.25,0.25,1,8,8,9.0,0.04,0.04,0.05
469,Bbw Bhkw Anlage,Natural Gas | Combustion Engine,DE,50Hertz,52.44114232441692,13.154527306727251,31.6682,0.0,50Hertz,B651,NGCT,1,0,0,0,68.0,0.58,0.86,1.0,0.08,0.12,1.0,1.0,1,1,1,8.0,0.08,0.08,0.1
470,Aa Tf Nea,Oil | Combustion Engine,DE,50Hertz,52.52457469746716,13.228748942964351,42.64,0.0,50Hertz,B651,Oil,1,0,0,0,110.0,0.82,0.88,1.0,0.1,0.08,1.0,1.0,1,1,1,10.0,0.06,0.06,0.08
471,Reuter,Other | Steam Turbine,DE,50Hertz,52.531837,13.246424,36.0,0.0,50Hertz,B651,Other,1,0,0,0,55.0,0.25,0.85,0.9,0.08,0.05,0.4,0.4,1,4,4,5.0,0.04,0.04,0.05
472,Autohaus,Solar | PP,DE,50Hertz,52.487685678205104,13.19520995699378,11.220469999999999,0.0,50Hertz,B651,SolarPV,0,1,1,0,2.0,0.0,0.15,1.0,0.03,0.0,1.0,1.0,0,0,0,0.0,0.0,0.0,0.0
473,Bhkw Alt,Biogas | Combustion Engine,DE,50Hertz,51.11958478009414,12.182669667189074,13.98653,0.0,50Hertz,B654,Bio,1,1,0,0,39.0,0.1,0.9,0.9,0.08,0.06,0.4,0.4,1,6,6,6.0,0.05,0.05,0.06
474,Ikw Deuben,Lignite | Steam Turbine,DE,50Hertz,51.12945490816327,12.077512938775511,98.0,0.0,50Hertz,B654,Coal,1,0,0,0,36.0,0.95,0.9,0.92,0.08,0.08,0.25,0.25,1,8,8,9.0,0.04,0.04,0.05
475,Wka Gobitz,Hydro | Run-Of-River,DE,50Hertz,51.04948255813954,12.126983441860464,0.43,0.0,50Hertz,B654,Hydro,0,1,0,0,7.5,0.0,0.7,0.65,0.04,0.0,1.0,1.0,0,0,0,0.0,0.0,0.0,0.0
476,Thermische Abfallverwertungsanlage Zorbau,Waste | Steam Turbine,DE,50Hertz,51.18179,12.018939,27.2,0.0,50Hertz,B654,MSW,1,1,0,0,32.0,0.08,0.9,0.92,0.08,0.06,0.35,0.35,1,6,6,5.0,0.05,0.05,0.06
477,Dampfturbine Cropenergies Zeitz,Natural Gas | Steam Turbine,DE,50Hertz,51.05143811099636,12.120179681666174,20.334,0.0,50Hertz,B654,NGCC,1,0,0,0,42.0,0.4,0.92,1.0,0.06,0.1,0.5,0.5,1,4,4,6.0,0.05,0.05,0.075
478,Bhkw Anlage Liegenschaft Knauthain,Natural Gas | Combustion Engine,DE,50Hertz,51.178680007716395,12.219034156340863,17.884,0.0,50Hertz,B654,NGCT,1,0,0,0,68.0,0.58,0.86,1.0,0.08,0.12,1.0,1.0,1,1,1,8.0,0.08,0.08,0.1
479,Industriepark Zeitz,Oil | CCGT,DE,50Hertz,51.06901328568735,12.195102381482178,127.272,0.0,50Hertz,B654,Oil,1,0,0,0,110.0,0.82,0.88,1.0,0.1,0.08,1.0,1.0,1,1,1,10.0,0.06,0.06,0.08
480,Dampfturbine Sudzucker Zeitz,Other | Steam Turbine,DE,50Hertz,51.050518000000004,12.116093,22.491,0.0,50Hertz,B654,Other,1,0,0,0,55.0,0.25,0.85,0.9,0.08,0.05,0.4,0.4,1,4,4,5.0,0.04,0.04,0.05
481,Abr,Solar | PP,DE,50Hertz,51.16609798157676,12.216594887478722,178.16088,0.0,50Hertz,B654,SolarPV,0,1,1,0,2.0,0.0,0.15,1.0,0.03,0.0,1.0,1.0,0,0,0,0.0,0.0,0.0,0.0
482,Bauabschnitt Gp,Wind | Onshore,DE,50Hertz,51.16890931267657,12.111791476997487,314.683,0.0,50Hertz,B654,WindOn,0,1,1,0,3.0,0.0,0.18,1.0,0.05,0.0,1.0,1.0,0,0,0,0.0,0.0,0.0,0.0
483,Bga Wolgast Netzebander Str Anlage Bhkw,Biogas | Combustion Engine,DE,50Hertz,54.058216863094856,13.536248134105852,15.361,0.0,50Hertz,B657,Bio,1,1,0,0,39.0,0.1,0.9,0.9,0.08,0.06,0.4,0.4,1,6,6,6.0,0.05,0.05,0.06
484,Helmshager Berg,Natural Gas | CCGT,DE,50Hertz,54.12864503990015,13.584792235543285,52.882000000000005,0.0,50Hertz,B657,NGCC,1,0,0,0,42.0,0.4,0.92,1.0,0.06,0.1,0.5,0.5,1,4,4,6.0,0.05,0.05,0.075
485,Bbw Haus,Natural Gas | Combustion Engine,DE,50Hertz,54.088052921484326,13.447439358828523,39.1113,0.0,50Hertz,B657,NGCT,1,0,0,0,68.0,0.58,0.86,1.0,0.08,0.12,1.0,1.0,1,1,1,8.0,0.08,0.08,0.1
486,Greifswald 1,Nuclear | Steam Turbine,DE,50Hertz,54.141600000000004,13.6634,2200.0,0.0,50Hertz,B657,NuC,1,0,0,0,12.0,0.0,0.95,0.95,0.06,0.1,0.12,0.12,1,24,24,4.0,0.05,0.05,0.075
487,Dtb Rtb Fet Nspc Svxxx Nea,Oil | Combustion Engine,DE,50Hertz,54.08754299191533,13.406365711303838,6.803,0.0,50Hertz,B657,Oil,1,0,0,0,110.0,0.82,0.88,1.0,0.1,0.08,1.0,1.0,1,1,1,10.0,0.06,0.06,0.08
488,Abr,Solar | PP,DE,50Hertz,54.05562385100376,13.545230272175766,86.283733,0.0,50Hertz,B657,SolarPV,0,1,1,0,2.0,0.0,0.15,1.0,0.03,0.0,1.0,1.0,0,0,0,0.0,0.0,0.0,0.0
489,Ka Wlg,Wind | Onshore,DE,50Hertz,54.044250890402665,13.62939152588556,82.575,0.0,50Hertz,B657,WindOn,0,1,1,0,3.0,0.0,0.18,1.0,0.05,0.0,1.0,1.0,0,0,0,0.0,0.0,0.0,0.0
490,Pastitz,Biogas | Combustion Engine,DE,50Hertz,54.368308,13.492325,1.962,0.0,50Hertz,B658,Bio,1,1,0,0,39.0,0.1,0.9,0.9,0.08,0.06,0.4,0.4,1,6,6,6.0,0.05,0.05,0.06
491,Bhkw Bst,Natural Gas | CHP,DE,50Hertz,54.083304,13.906713,0.24,0.0,50Hertz,B658,NGCC,1,0,0,0,42.0,0.4,0.92,1.0,0.06,0.1,0.5,0.5,1,4,4,6.0,0.05,0.05,0.075
492,Bhkw,Natural Gas | Combustion Engine,DE,50Hertz,54.27089765357503,13.744123406344412,3.972,0.0,50Hertz,B658,NGCT,1,0,0,0,68.0,0.58,0.86,1.0,0.08,0.12,1.0,1.0,1,1,1,8.0,0.08,0.08,0.1
493,Bannemin,Solar | PP,DE,50Hertz,54.07185264184301,13.866934875923613,25.607854,0.0,50Hertz,B658,SolarPV,0,1,1,0,2.0,0.0,0.15,1.0,0.03,0.0,1.0,1.0,0,0,0,0.0,0.0,0.0,0.0
494,Arkona Becken Sud Ost,Wind | Offshore,DE,50Hertz,54.245574,14.17682,6.3,0.0,50Hertz,B658,WindOff,0,1,1,0,4.0,0.0,0.25,1.0,0.05,0.0,1.0,1.0,0,0,0,0.0,0.0,0.0,0.0
495,Bhkw Waldstrasse Motormodul,Biogas | Combustion Engine,DE,50Hertz,52.57189389655172,13.341391896551723,1.45,0.0,50Hertz,B661,Bio,1,1,0,0,39.0,0.1,0.9,0.9,0.08,0.06,0.4,0.4,1,6,6,6.0,0.05,0.05,0.06
496,Charlottenburg,Hard Coal | Steam Turbine,DE,50Hertz,52.52908395477387,13.326699597989949,199.0,0.0,50Hertz,B661,Coal,1,0,0,0,36.0,0.95,0.9,0.92,0.08,0.08,0.25,0.25,1,8,8,9.0,0.04,0.04,0.05
497,Charlottenburg,Natural Gas | CCGT,DE,50Hertz,52.52312896088895,13.316675768535378,159.29,0.0,50Hertz,B661,NGCC,1,0,0,0,42.0,0.4,0.92,1.0,0.06,0.1,0.5,0.5,1,4,4,6.0,0.05,0.05,0.075
498,Berlin George Stephenson Strasse Los,Natural Gas | Combustion Engine,DE,50Hertz,52.52321798631773,13.32595836219155,16.737000000000002,0.0,50Hertz,B661,NGCT,1,0,0,0,68.0,0.58,0.86,1.0,0.08,0.12,1.0,1.0,1,1,1,8.0,0.08,0.08,0.1
499,Berlin Nea Osa,Oil | Combustion Engine,DE,50Hertz,52.49498708965197,13.313738472250359,407.7278,0.0,50Hertz,B661,Oil,1,0,0,0,110.0,0.82,0.88,1.0,0.1,0.08,1.0,1.0,1,1,1,10.0,0.06,0.06,0.08
500,Behala Halle,Solar | PP,DE,50Hertz,52.55811724408959,13.3385942051184,8.89067,0.0,50Hertz,B661,SolarPV,0,1,1,0,2.0,0.0,0.15,1.0,0.03,0.0,1.0,1.0,0,0,0,0.0,0.0,0.0,0.0
501,Bga Gultz,Biogas | Combustion Engine,DE,50Hertz,53.70761686593137,13.329920488725492,8.16,0.0,50Hertz,B671,Bio,1,1,0,0,39.0,0.1,0.9,0.9,0.08,0.06,0.4,0.4,1,6,6,6.0,0.05,0.05,0.06
502,Rh Grapzow Mecklenburg Vorpommern,Hydrogen Storage | Store,DE,50Hertz,53.7167,13.2833,1.0,0.0,50Hertz,B671,Hydro,0,1,0,0,7.5,0.0,0.7,0.65,0.04,0.0,1.0,1.0,0,0,0,0.0,0.0,0.0,0.0
503,Notstromaggregat At,Oil | Combustion Engine,DE,50Hertz,53.71706700000001,13.245587,0.8,0.0,50Hertz,B671,Oil,1,0,0,0,110.0,0.82,0.88,1.0,0.1,0.08,1.0,1.0,1,1,1,10.0,0.06,0.06,0.08
504,Altenhagen Dieckmann Bna,Solar | PP,DE,50Hertz,53.692467670535464,13.36392016642132,94.727046,0.0,50Hertz,B671,SolarPV,0,1,1,0,2.0,0.0,0.15,1.0,0.03,0.0,1.0,1.0,0,0,0,0.0,0.0,0.0,0.0
505,Altentreptow,Wind | Onshore,DE,50Hertz,53.692143354688405,13.355980225552086,432.45,0.0,50Hertz,B671,WindOn,0,1,1,0,3.0,0.0,0.18,1.0,0.05,0.0,1.0,1.0,0,0,0,0.0,0.0,0.0,0.0
506,Asl,Biogas | Combustion Engine,DE,50Hertz,53.352066531976746,11.743047737790697,13.76,0.0,50Hertz,B672,Bio,1,1,0,0,39.0,0.1,0.9,0.9,0.08,0.06,0.4,0.4,1,6,6,6.0,0.05,0.05,0.06
507,Wasserkraftanlage Hechtsforthschleuse,Hydro | Run-Of-River,DE,50Hertz,53.33074143181818,11.596589386363638,0.43999999999999995,0.0,50Hertz,B672,Hydro,0,1,0,0,7.5,0.0,0.7,0.65,0.04,0.0,1.0,1.0,0,0,0,0.0,0.0,0.0,0.0
508,Bhkw,Natural Gas | Combustion Engine,DE,50Hertz,53.40598553475215,11.776350011853449,3.712,0.0,50Hertz,B672,NGCT,1,0,0,0,68.0,0.58,0.86,1.0,0.08,0.12,1.0,1.0,1,1,1,8.0,0.08,0.08,0.1
509,Dampfturbine Generator,Other | Steam Turbine,DE,50Hertz,53.298674,11.51633,2.6,0.0,50Hertz,B672,Other,1,0,0,0,55.0,0.25,0.85,0.9,0.08,0.05,0.4,0.4,1,4,4,5.0,0.04,0.04,0.05
510,Balder,Solar | PP,DE,50Hertz,53.3628495137952,11.764175362023266,215.655255,0.0,50Hertz,B672,SolarPV,0,1,1,0,2.0,0.0,0.15,1.0,0.03,0.0,1.0,1.0,0,0,0,0.0,0.0,0.0,0.0
511,Frauenmark Tempelberg,Wind | Onshore,DE,50Hertz,53.31315906068965,11.916864366896553,36.25,0.0,50Hertz,B672,WindOn,0,1,1,0,3.0,0.0,0.18,1.0,0.05,0.0,1.0,1.0,0,0,0,0.0,0.0,0.0,0.0
512,Akg,Biogas | Combustion Engine,DE,50Hertz,53.00218653039538,13.245787891957493,18.539,0.0,50Hertz,B673,Bio,1,1,0,0,39.0,0.1,0.9,0.9,0.08,0.06,0.4,0.4,1,6,6,6.0,0.05,0.05,0.06
513,Wasserkraftanlage,Hydro | Run-Of-River,DE,50Hertz,53.003730488023955,13.317968823353292,0.668,0.0,50Hertz,B673,Hydro,0,1,0,0,7.5,0.0,0.7,0.65,0.04,0.0,1.0,1.0,0,0,0,0.0,0.0,0.0,0.0
514,Biogasanlage Salzdahlum Bhkw,Waste | Steam Turbine,DE,50Hertz,53.240521,13.148751,0.4,0.0,50Hertz,B673,MSW,1,1,0,0,32.0,0.08,0.9,0.92,0.08,0.06,0.35,0.35,1,6,6,5.0,0.05,0.05,0.06
515,Bhkw,Natural Gas | CHP,DE,50Hertz,52.95652658248472,13.067594066191447,1.964,0.0,50Hertz,B673,NGCC,1,0,0,0,42.0,0.4,0.92,1.0,0.06,0.1,0.5,0.5,1,4,4,6.0,0.05,0.05,0.075
516,Bhkw,Natural Gas | Combustion Engine,DE,50Hertz,52.94586159318581,12.846607997315063,10.801,0.0,50Hertz,B673,NGCT,1,0,0,0,68.0,0.58,0.86,1.0,0.08,0.12,1.0,1.0,1,1,1,8.0,0.08,0.08,0.1
517,Rheinsberg,Nuclear | Steam Turbine,DE,50Hertz,53.1478,12.9904,70.0,0.0,50Hertz,B673,NuC,1,0,0,0,12.0,0.0,0.95,0.95,0.06,0.1,0.12,0.12,1,24,24,4.0,0.05,0.05,0.075
518,Nea Hit,Oil | Combustion Engine,DE,50Hertz,52.99449932758619,13.155045034482757,1.1600000000000001,0.0,50Hertz,B673,Oil,1,0,0,0,110.0,0.82,0.88,1.0,0.1,0.08,1.0,1.0,1,1,1,10.0,0.06,0.06,0.08
519,Abr,Solar | PP,DE,50Hertz,53.02353089143655,13.259559252020775,273.806717,0.0,50Hertz,B673,SolarPV,0,1,1,0,2.0,0.0,0.15,1.0,0.03,0.0,1.0,1.0,0,0,0,0.0,0.0,0.0,0.0
520,Basedow Wea,Wind | Onshore,DE,50Hertz,52.98211268652263,13.12943847355967,243.0,0.0,50Hertz,B673,WindOn,0,1,1,0,3.0,0.0,0.18,1.0,0.05,0.0,1.0,1.0,0,0,0,0.0,0.0,0.0,0.0
521,Aba Oderlandstrasse,Biogas | Combustion Engine,DE,50Hertz,52.16253148934569,14.63263805852152,51.81,0.0,50Hertz,B676,Bio,1,1,0,0,39.0,0.1,0.9,0.9,0.08,0.06,0.4,0.4,1,6,6,6.0,0.05,0.05,0.06
522,Frankfurt Oder,Lignite | Steam Turbine,DE,50Hertz,52.318435,14.531091,16.958,0.0,50Hertz,B676,Coal,1,0,0,0,36.0,0.95,0.9,0.92,0.08,0.08,0.25,0.25,1,8,8,9.0,0.04,0.04,0.05
523,Ppo Ebs Eisenhuttenstadt,Waste | Steam Turbine,DE,50Hertz,52.172833,14.639684,32.0,0.0,50Hertz,B676,MSW,1,1,0,0,32.0,0.08,0.9,0.92,0.08,0.06,0.35,0.35,1,6,6,5.0,0.05,0.05,0.06
524,Frankfurt Oder,Natural Gas | CCGT,DE,50Hertz,52.21010258755267,14.602178103453728,253.002,0.0,50Hertz,B676,NGCC,1,0,0,0,42.0,0.4,0.92,1.0,0.06,0.1,0.5,0.5,1,4,4,6.0,0.05,0.05,0.075
525,Bhkw Sud,Natural Gas | Combustion Engine,DE,50Hertz,52.30296225700934,14.5390538317757,2.14,0.0,50Hertz,B676,NGCT,1,0,0,0,68.0,0.58,0.86,1.0,0.08,0.12,1.0,1.0,1,1,1,8.0,0.08,0.08,0.1
526,Nea Ka Ehst An Der,Oil | Combustion Engine,DE,50Hertz,52.24998828834356,14.5795705398773,1.304,0.0,50Hertz,B676,Oil,1,0,0,0,110.0,0.82,0.88,1.0,0.1,0.08,1.0,1.0,1,1,1,10.0,0.06,0.06,0.08
527,Boossen,Solar | PP,DE,50Hertz,52.181790253074226,14.610699967054465,66.85003,0.0,50Hertz,B676,SolarPV,0,1,1,0,2.0,0.0,0.15,1.0,0.03,0.0,1.0,1.0,0,0,0,0.0,0.0,0.0,0.0
528,Abo Wind Wp Schierenberg,Wind | Onshore,DE,50Hertz,52.113142017857136,14.919101159090909,61.6,0.0,50Hertz,B676,WindOn,0,1,1,0,3.0,0.0,0.18,1.0,0.05,0.0,1.0,1.0,0,0,0,0.0,0.0,0.0,0.0
529,Aba Bhkw,Biogas | Combustion Engine,DE,50Hertz,51.428263917432915,14.149409291424279,5.329000000000001,0.0,50Hertz,B684,Bio,1,1,0,0,39.0,0.1,0.9,0.9,0.08,0.06,0.4,0.4,1,6,6,6.0,0.05,0.05,0.06
530,Schwarze Pumpe,Lignite | Steam Turbine,DE,50Hertz,51.531359,14.348723,1510.0,0.0,50Hertz,B684,Coal,1,0,0,0,36.0,0.95,0.9,0.92,0.08,0.08,0.25,0.25,1,8,8,9.0,0.04,0.04,0.05
531,Haminan Hoyrykattilalaitos,Hydro | Run-Of-River,DE,50Hertz,51.520132,14.337383,20.3,0.0,50Hertz,B684,Hydro,0,1,0,0,7.5,0.0,0.7,0.65,0.04,0.0,1.0,1.0,0,0,0,0.0,0.0,0.0,0.0
532,Ebs Spremberg,Waste | Steam Turbine,DE,50Hertz,51.498242329417934,14.265857705158323,40.013,0.0,50Hertz,B684,MSW,1,1,0,0,32.0,0.08,0.9,0.92,0.08,0.06,0.35,0.35,1,6,6,5.0,0.05,0.05,0.06
533,Bhkw Pewo Elsterheide,Natural Gas | CCGT,DE,50Hertz,51.51899237214915,14.352975442283238,850.143,0.0,50Hertz,B684,NGCC,1,0,0,0,42.0,0.4,0.92,1.0,0.06,0.1,0.5,0.5,1,4,4,6.0,0.05,0.05,0.075
534,Bhkw Kirschallee,Natural Gas | Combustion Engine,DE,50Hertz,51.537613922686944,14.321460755386564,2.367,0.0,50Hertz,B684,NGCT,1,0,0,0,68.0,0.58,0.86,1.0,0.08,0.12,1.0,1.0,1,1,1,8.0,0.08,0.08,0.1
535,Anlage Auf Dach,Solar | PP,DE,50Hertz,51.50161746262705,14.229599405887292,225.17931,0.0,50Hertz,B684,SolarPV,0,1,1,0,2.0,0.0,0.15,1.0,0.03,0.0,1.0,1.0,0,0,0,0.0,0.0,0.0,0.0
536,Auras,Wind | Onshore,DE,50Hertz,51.55503079355749,14.297208406066307,106.325,0.0,50Hertz,B684,WindOn,0,1,1,0,3.0,0.0,0.18,1.0,0.05,0.0,1.0,1.0,0,0,0,0.0,0.0,0.0,0.0
537,Bga Berthelsdorf Bhkw,Biogas | Combustion Engine,DE,50Hertz,51.11346362365391,14.834294535451976,33.2351,0.0,50Hertz,B685,Bio,1,1,0,0,39.0,0.1,0.9,0.9,0.08,0.06,0.4,0.4,1,6,6,6.0,0.05,0.05,0.06
538,Anlage,Lignite | Steam Turbine,DE,50Hertz,50.98700000000001,14.609,0.74,0.0,50Hertz,B685,Coal,1,0,0,0,36.0,0.95,0.9,0.92,0.08,0.08,0.25,0.25,1,8,8,9.0,0.04,0.04,0.05
539,Am Wehr,Hydro | Run-Of-River,DE,50Hertz,51.21332357808564,14.994341846347606,1.588,0.0,50Hertz,B685,Hydro,0,1,0,0,7.5,0.0,0.7,0.65,0.04,0.0,1.0,1.0,0,0,0,0.0,0.0,0.0,0.0
540,Bhkw,Natural Gas | Combustion Engine,DE,50Hertz,51.09696955478183,14.887265300650053,20.306,0.0,50Hertz,B685,NGCT,1,0,0,0,68.0,0.58,0.86,1.0,0.08,0.12,1.0,1.0,1,1,1,8.0,0.08,0.08,0.1
541,Nea Zittau,Oil | Combustion Engine,DE,50Hertz,50.96998885576923,14.789139221153844,1.04,0.0,50Hertz,B685,Oil,1,0,0,0,110.0,0.82,0.88,1.0,0.1,0.08,1.0,1.0,1,1,1,10.0,0.06,0.06,0.08
542,Abr,Solar | PP,DE,50Hertz,51.08315309844942,14.814229284275099,129.83464,0.0,50Hertz,B685,SolarPV,0,1,1,0,2.0,0.0,0.15,1.0,0.03,0.0,1.0,1.0,0,0,0,0.0,0.0,0.0,0.0
543,Ebersdorf Lobau,Wind | Onshore,DE,50Hertz,51.10413765943933,14.857872527814278,228.3,0.0,50Hertz,B685,WindOn,0,1,1,0,3.0,0.0,0.18,1.0,0.05,0.0,1.0,1.0,0,0,0,0.0,0.0,0.0,0.0
544,Abr,Biogas | Combustion Engine,DE,50Hertz,53.082619564329626,11.44198691959991,31.393,0.0,50Hertz,B686,Bio,1,1,0,0,39.0,0.1,0.9,0.9,0.08,0.06,0.4,0.4,1,6,6,6.0,0.05,0.05,0.06
545,Wkw Neu Kaliss,Hydro | Run-Of-River,DE,50Hertz,53.170065,11.28699,0.15,0.0,50Hertz,B686,Hydro,0,1,0,0,7.5,0.0,0.7,0.65,0.04,0.0,1.0,1.0,0,0,0,0.0,0.0,0.0,0.0
546,Bhkw Generator Modul,Natural Gas | Combustion Engine,DE,50Hertz,53.009195942916755,11.680903292812442,5.273,0.0,50Hertz,B686,NGCT,1,0,0,0,68.0,0.58,0.86,1.0,0.08,0.12,1.0,1.0,1,1,1,8.0,0.08,0.08,0.1
547,Pja,Oil | Combustion Engine,DE,50Hertz,53.03390325,11.340508916666668,2.4,0.0,50Hertz,B686,Oil,1,0,0,0,110.0,0.82,0.88,1.0,0.1,0.08,1.0,1.0,1,1,1,10.0,0.06,0.06,0.08
